{"type":"FeatureCollection","metadata":{"source":"Google Popular Times vía SerpAPI","fetched_at":"2026-07-12T09:59:39.240Z","errors":[]},"features":[{"type":"Feature","geometry":{"type":"Point","coordinates":[-89.1911126,13.698274]},"properties":{"name":"Catedral Metropolitana de San Salvador","department":"San Salvador","busyness":0,"is_live":false,"info":"Sin lectura de intensidad disponible","peak_hour":"5 p.m.","peak_score":91,"rating":4.7}},{"type":"Feature","geometry":{"type":"Point","coordinates":[-89.1956216,13.6952132]},"properties":{"name":"Mercado Central de San Salvador","department":"San Salvador","busyness":0,"is_live":true,"info":"Sin lectura de intensidad disponible","peak_hour":"10 a.m.","peak_score":80,"rating":4.2}},{"type":"Feature","geometry":{"type":"Point","coordinates":[-89.18941,13.6974434]},"properties":{"name":"Plaza Libertad","department":"San Salvador","busyness":2,"is_live":true,"info":"Muy poco concurrido","peak_hour":"4 p.m.","peak_score":100,"rating":4.5}},{"type":"Feature","geometry":{"type":"Point","coordinates":[-89.19115099999999,13.697599499999999]},"properties":{"name":"Plaza Gerardo Barrios","department":"San Salvador","busyness":3,"is_live":true,"info":"Muy poco concurrido","peak_hour":"6 p.m.","peak_score":100,"rating":4.6}},{"type":"Feature","geometry":{"type":"Point","coordinates":[-89.2119355,13.7060853]},"properties":{"name":"Metrocentro San Salvador","department":"San Salvador","busyness":0,"is_live":true,"info":"Sin lectura de intensidad disponible","peak_hour":"3 p.m.","peak_score":70,"rating":4.4}},{"type":"Feature","geometry":{"type":"Point","coordinates":[-89.3207046,13.4880602]},"properties":{"name":"La Libertad","department":"La Libertad","busyness":null,"is_live":false,"info":"Sin lectura de intensidad disponible","peak_hour":"","peak_score":null,"rating":null}},{"type":"Feature","geometry":{"type":"Point","coordinates":[-89.38138889999999,13.492222199999999]},"properties":{"name":"Playa El Tunco","department":"La Libertad","busyness":null,"is_live":false,"info":"Sin lectura de intensidad disponible","peak_hour":"","peak_score":null,"rating":4.6}},{"type":"Feature","geometry":{"type":"Point","coordinates":[-89.5559325,13.995013]},"properties":{"name":"Catedral de Nuestra Señora Santa Ana","department":"Santa Ana","busyness":0,"is_live":false,"info":"Sin lectura de intensidad disponible","peak_hour":"11 a.m.","peak_score":80,"rating":4.7}},{"type":"Feature","geometry":{"type":"Point","coordinates":[-89.5450458,13.861786299999999]},"properties":{"name":"Lago de Coatepeque","department":"Santa Ana","busyness":null,"is_live":false,"info":"Sin lectura de intensidad disponible","peak_hour":"","peak_score":null,"rating":4.7}},{"type":"Feature","geometry":{"type":"Point","coordinates":[-89.74386349999999,13.843231099999999]},"properties":{"name":"Juayúa","department":"Sonsonate","busyness":null,"is_live":false,"info":"Sin lectura de intensidad disponible","peak_hour":"","peak_score":null,"rating":null}},{"type":"Feature","geometry":{"type":"Point","coordinates":[-89.8493309,13.869408199999999]},"properties":{"name":"Concepción de Ataco","department":"Ahuachapán","busyness":null,"is_live":false,"info":"Sin lectura de intensidad disponible","peak_hour":"","peak_score":null,"rating":null}},{"type":"Feature","geometry":{"type":"Point","coordinates":[-89.02510219999999,13.932763]},"properties":{"name":"Suchitoto","department":"Cuscatlán","busyness":null,"is_live":false,"info":"Sin lectura de intensidad disponible","peak_hour":"","peak_score":null,"rating":null}}]}