{"type":"FeatureCollection","metadata":{"source":"Google Popular Times vía SerpAPI","fetched_at":"2026-07-12T19:51:55.015Z","place_count":98,"errors":[{"place":"Parque Bicentenario El Salvador","error":"Your account has run out of searches."},{"place":"Parque Cuscatlán El Salvador","error":"Your account has run out of searches."},{"place":"Parque Nacional Walter Thilo Deininger El Salvador","error":"Your account has run out of searches."},{"place":"Playa Costa del Sol El Salvador","error":"Your account has run out of searches."},{"place":"Playa El Cuco El Salvador","error":"Your account has run out of searches."},{"place":"Playa El Espino El Salvador","error":"Your account has run out of searches."},{"place":"Playa Mizata El Salvador","error":"Your account has run out of searches."},{"place":"Playa San Diego El Salvador","error":"Your account has run out of searches."},{"place":"Puerto de Acajutla El Salvador","error":"Your account has run out of searches."},{"place":"Puerto de La Unión El Salvador","error":"Your account has run out of searches."},{"place":"Puerto El Triunfo El Salvador","error":"Your account has run out of searches."},{"place":"Reserva Ecológica Cinquera El Salvador","error":"Your account has run out of searches."},{"place":"Río Sensunapán El Salvador","error":"Your account has run out of searches."},{"place":"Ruta Colonial El Salvador","error":"Your account has run out of searches."},{"place":"Salcoatitán El Salvador","error":"Your account has run out of searches."},{"place":"Sitio Arqueológico Cihuatán El Salvador","error":"Your account has run out of searches."},{"place":"Termales de Santa Teresa El Salvador","error":"Your account has run out of searches."},{"place":"Terminal de Occidente El Salvador","error":"Your account has run out of searches."},{"place":"Terminal de Oriente El Salvador","error":"Your account has run out of searches."},{"place":"Turicentro Apulo El Salvador","error":"Your account has run out of searches."},{"place":"Turicentro Atecozol El Salvador","error":"Your account has run out of searches."},{"place":"Turicentro Los Chorros El Salvador","error":"Your account has run out of searches."},{"place":"Volcán de Conchagua El Salvador","error":"Your account has run out of searches."},{"place":"Volcán de San Miguel (Chaparrastique) El Salvador","error":"Your account has run out of searches."},{"place":"Zoológico Nacional de El Salvador El Salvador","error":"Your account has run out of searches."}]},"features":[{"type":"Feature","geometry":{"type":"Point","coordinates":[-89.8027709,13.8609855]},"properties":{"name":"Apaneca","department":"Ahuachapán","busyness":null,"is_live":false,"info":"Sin lectura de intensidad disponible","peak_hour":"","peak_score":null,"rating":null,"slug":"apaneca","featured":true,"verified":true}},{"type":"Feature","geometry":{"type":"Point","coordinates":[-88.6096575,13.268350499999999]},"properties":{"name":"Bahía de Jiquilisco","department":"Usulután","busyness":null,"is_live":false,"info":"Sin lectura de intensidad disponible","peak_hour":"","peak_score":null,"rating":4.5,"slug":"bahia-de-jiquilisco","featured":true,"verified":true}},{"type":"Feature","geometry":{"type":"Point","coordinates":[-89.8493309,13.869408199999999]},"properties":{"name":"Concepción de Ataco","department":"Ahuachapán","busyness":null,"is_live":false,"info":"Sin lectura de intensidad disponible","peak_hour":"","peak_score":null,"rating":null,"slug":"concepcion-de-ataco","featured":true,"verified":true}},{"type":"Feature","geometry":{"type":"Point","coordinates":[-89.18850739999999,13.6973509]},"properties":{"name":"Iglesia El Rosario","department":"San Salvador","busyness":0,"is_live":false,"info":"Sin lectura de intensidad disponible","peak_hour":"11 a.m.","peak_score":68,"rating":4.7,"slug":"iglesia-el-rosario","featured":true,"verified":true}},{"type":"Feature","geometry":{"type":"Point","coordinates":[-89.3562386,13.827920599999999]},"properties":{"name":"Parque Arqueológico Joya de Cerén","department":"La Libertad","busyness":null,"is_live":false,"info":"Sin lectura de intensidad disponible","peak_hour":"","peak_score":null,"rating":4.5,"slug":"joya-de-ceren","featured":true,"verified":true}},{"type":"Feature","geometry":{"type":"Point","coordinates":[-89.74386349999999,13.843231099999999]},"properties":{"name":"Juayúa","department":"Sonsonate","busyness":null,"is_live":false,"info":"Sin lectura de intensidad disponible","peak_hour":"","peak_score":null,"rating":null,"slug":"juayua","featured":true,"verified":true}},{"type":"Feature","geometry":{"type":"Point","coordinates":[-89.5450458,13.861786299999999]},"properties":{"name":"Lago de Coatepeque","department":"Santa Ana","busyness":null,"is_live":false,"info":"Sin lectura de intensidad disponible","peak_hour":"","peak_score":null,"rating":4.7,"slug":"lago-de-coatepeque","featured":true,"verified":true}},{"type":"Feature","geometry":{"type":"Point","coordinates":[-89.1223567,14.0862042]},"properties":{"name":"Lago Suchitlán","department":"Chalatenango","busyness":null,"is_live":false,"info":"Sin lectura de intensidad disponible","peak_hour":"","peak_score":null,"rating":4.5,"slug":"lago-de-suchitlan","featured":true,"verified":true}},{"type":"Feature","geometry":{"type":"Point","coordinates":[-89.7289242,13.840170899999999]},"properties":{"name":"7 cascadas juayua","department":"Sonsonate","busyness":null,"is_live":false,"info":"Sin lectura de intensidad disponible","peak_hour":"","peak_score":null,"rating":4.9,"slug":"los-siete-chorros-juayua","featured":true,"verified":true}},{"type":"Feature","geometry":{"type":"Point","coordinates":[-89.9346668,13.8332149]},"properties":{"name":"Parque Nacional El Imposible","department":"Ahuachapán","busyness":null,"is_live":false,"info":"Sin lectura de intensidad disponible","peak_hour":"","peak_score":null,"rating":4.6,"slug":"parque-nacional-el-imposible","featured":true,"verified":true}},{"type":"Feature","geometry":{"type":"Point","coordinates":[-89.38138889999999,13.492222199999999]},"properties":{"name":"Playa El Tunco","department":"La Libertad","busyness":null,"is_live":false,"info":"Sin lectura de intensidad disponible","peak_hour":"","peak_score":null,"rating":4.6,"slug":"playa-el-tunco","featured":true,"verified":true}},{"type":"Feature","geometry":{"type":"Point","coordinates":[-89.4400094,13.4943911]},"properties":{"name":"Playa El Zonte","department":"La Libertad","busyness":55,"is_live":true,"info":"Un poco concurrido","peak_hour":"5 p.m.","peak_score":88,"rating":4.7,"slug":"playa-el-zonte","featured":true,"verified":true}},{"type":"Feature","geometry":{"type":"Point","coordinates":[-89.8044194,13.525428199999999]},"properties":{"name":"Playa Los Cobanos","department":"Sonsonate","busyness":91,"is_live":true,"info":"Ahora: Por lo general, es cuando está más concurrido","peak_hour":"2 p.m.","peak_score":100,"rating":4.4,"slug":"playa-los-cobanos","featured":true,"verified":true}},{"type":"Feature","geometry":{"type":"Point","coordinates":[-89.7837174,13.850762999999999]},"properties":{"name":"Ruta de las Flores","department":"Sonsonate","busyness":null,"is_live":false,"info":"Sin lectura de intensidad disponible","peak_hour":"","peak_score":null,"rating":null,"slug":"ruta-de-las-flores","featured":true,"verified":true}},{"type":"Feature","geometry":{"type":"Point","coordinates":[-89.6741595,13.979590799999999]},"properties":{"name":"Parque Arqueológico Tazumal","department":"Santa Ana","busyness":null,"is_live":false,"info":"Sin lectura de intensidad disponible","peak_hour":"","peak_score":null,"rating":4.6,"slug":"sitio-arqueologico-de-tazumal","featured":true,"verified":true}},{"type":"Feature","geometry":{"type":"Point","coordinates":[-89.02510219999999,13.932763]},"properties":{"name":"Suchitoto","department":"Cuscatlán","busyness":null,"is_live":false,"info":"Sin lectura de intensidad disponible","peak_hour":"","peak_score":null,"rating":null,"slug":"suchitoto","featured":true,"verified":true}},{"type":"Feature","geometry":{"type":"Point","coordinates":[-89.6294444,13.85]},"properties":{"name":"Volcán de Santa Ana","department":"Santa Ana","busyness":null,"is_live":false,"info":"Sin lectura de intensidad disponible","peak_hour":"","peak_score":null,"rating":4.7,"slug":"volcan-de-santa-ana-ilamatepec","featured":true,"verified":true}},{"type":"Feature","geometry":{"type":"Point","coordinates":[-88.4937181,13.492776]},"properties":{"name":"Laguna de Alegría","department":"Usulután","busyness":71,"is_live":true,"info":"Máxima concurrencia","peak_hour":"4 p.m.","peak_score":100,"rating":4.6,"slug":"volcan-y-laguna-de-alegria-tecapa","featured":true,"verified":false}},{"type":"Feature","geometry":{"type":"Point","coordinates":[-89.05709759999999,13.4449927]},"properties":{"name":"Aeropuerto Internacional de El Salvador San Óscar Arnulfo Romero y Galdámez","department":"La Paz","busyness":81,"is_live":true,"info":"Un poco concurrido","peak_hour":"3 p.m.","peak_score":92,"rating":4.4,"slug":"aeropuerto-internacional-de-el-salvador","featured":false,"verified":true}},{"type":"Feature","geometry":{"type":"Point","coordinates":[-90.0128247,13.6927191]},"properties":{"name":"Barra de Santiago","department":"Ahuachapán","busyness":null,"is_live":false,"info":"Sin lectura de intensidad disponible","peak_hour":"","peak_score":null,"rating":null,"slug":"barra-de-santiago","featured":false,"verified":true}},{"type":"Feature","geometry":{"type":"Point","coordinates":[-89.1911126,13.698274]},"properties":{"name":"Catedral Metropolitana de San Salvador","department":"San Salvador","busyness":0,"is_live":false,"info":"Sin lectura de intensidad disponible","peak_hour":"5 p.m.","peak_score":91,"rating":4.7,"slug":"catedral-metropolitana-de-san-salvador","featured":false,"verified":true}},{"type":"Feature","geometry":{"type":"Point","coordinates":[-89.1170186,14.3832931]},"properties":{"name":"Cerro El Pital","department":"Chalatenango","busyness":null,"is_live":false,"info":"Sin lectura de intensidad disponible","peak_hour":"","peak_score":null,"rating":4.6,"slug":"cerro-el-pital","featured":false,"verified":true}},{"type":"Feature","geometry":{"type":"Point","coordinates":[-89.2477198,13.669718099999999]},"properties":{"name":"JARDIN BOTANICO LA LAGUNA","department":"La Libertad","busyness":86,"is_live":true,"info":"Un poco concurrido","peak_hour":"3 p.m.","peak_score":100,"rating":4.6,"slug":"jardin-botanico-la-laguna","featured":false,"verified":true}},{"type":"Feature","geometry":{"type":"Point","coordinates":[-89.1729807,14.316670799999999]},"properties":{"name":"La Palma","department":"Chalatenango","busyness":null,"is_live":false,"info":"Sin lectura de intensidad disponible","peak_hour":"","peak_score":null,"rating":null,"slug":"la-palma","featured":false,"verified":true}},{"type":"Feature","geometry":{"type":"Point","coordinates":[-89.46240069999999,14.3116801]},"properties":{"name":"Laguna de Metapán","department":"Santa Ana","busyness":null,"is_live":false,"info":"Sin lectura de intensidad disponible","peak_hour":"","peak_score":null,"rating":4.5,"slug":"laguna-de-metapan-guija","featured":false,"verified":true}},{"type":"Feature","geometry":{"type":"Point","coordinates":[-89.24202919999999,13.6927538]},"properties":{"name":"Museo de Arte de El Salvador (MARTE)","department":"San Salvador","busyness":null,"is_live":false,"info":"Sin lectura de intensidad disponible","peak_hour":"","peak_score":null,"rating":4.7,"slug":"museo-de-arte-de-el-salvador-marte","featured":false,"verified":true}},{"type":"Feature","geometry":{"type":"Point","coordinates":[-89.23874719999999,13.6871417]},"properties":{"name":"Museo Nacional de Antropología Dr. David J. Guzmán (MUNA)","department":"San Salvador","busyness":77,"is_live":true,"info":"Menos concurrido de lo habitual","peak_hour":"2 p.m.","peak_score":79,"rating":4.6,"slug":"museo-nacional-de-antropologia-muna","featured":false,"verified":true}},{"type":"Feature","geometry":{"type":"Point","coordinates":[-89.740343,13.778024499999999]},"properties":{"name":"Nahuizalco","department":"Sonsonate","busyness":null,"is_live":false,"info":"Sin lectura de intensidad disponible","peak_hour":"","peak_score":null,"rating":null,"slug":"nahuizalco","featured":false,"verified":true}},{"type":"Feature","geometry":{"type":"Point","coordinates":[-89.1921715,13.697743]},"properties":{"name":"Palacio Nacional de El Salvador","department":"San Salvador","busyness":null,"is_live":false,"info":"Sin lectura de intensidad disponible","peak_hour":"","peak_score":null,"rating":null,"slug":"palacio-nacional","featured":false,"verified":true}},{"type":"Feature","geometry":{"type":"Point","coordinates":[-89.1789323,13.6132213]},"properties":{"name":"Panchimalco","department":"San Salvador","busyness":null,"is_live":false,"info":"Sin lectura de intensidad disponible","peak_hour":"","peak_score":null,"rating":null,"slug":"panchimalco","featured":false,"verified":true}},{"type":"Feature","geometry":{"type":"Point","coordinates":[-89.62527779999999,13.8277778]},"properties":{"name":"Cerro Verde","department":"Sonsonate","busyness":null,"is_live":false,"info":"Sin lectura de intensidad disponible","peak_hour":"","peak_score":null,"rating":4.7,"slug":"parque-nacional-los-volcanes","featured":false,"verified":true}},{"type":"Feature","geometry":{"type":"Point","coordinates":[-89.4000002,14.386349399999999]},"properties":{"name":"Parque Nacional Montecristo Trifinio","department":"Santa Ana","busyness":94,"is_live":true,"info":"Menos concurrido de lo habitual","peak_hour":"2 p.m.","peak_score":100,"rating":4.7,"slug":"parque-nacional-montecristo-trifinio","featured":false,"verified":true}},{"type":"Feature","geometry":{"type":"Point","coordinates":[-88.16085149999999,13.956798299999999]},"properties":{"name":"Perquín","department":"Morazán","busyness":null,"is_live":false,"info":"Sin lectura de intensidad disponible","peak_hour":"","peak_score":null,"rating":null,"slug":"perquin","featured":false,"verified":true}},{"type":"Feature","geometry":{"type":"Point","coordinates":[-89.8323489,13.571488599999999]},"properties":{"name":"Playa las Flores","department":"Usulután","busyness":4,"is_live":true,"info":"Ahora: Por lo general, está menos concurrido","peak_hour":"3 p.m.","peak_score":28,"rating":4.3,"slug":"playa-las-flores","featured":false,"verified":true}},{"type":"Feature","geometry":{"type":"Point","coordinates":[-89.189762,13.6249153]},"properties":{"name":"Puerta del Diablo","department":"San Salvador","busyness":53,"is_live":true,"info":"Un poco concurrido","peak_hour":"5 p.m.","peak_score":100,"rating":4.6,"slug":"puerta-del-diablo","featured":false,"verified":true}},{"type":"Feature","geometry":{"type":"Point","coordinates":[-89.6583449,13.8250168]},"properties":{"name":"Reserva de la Biosfera Apaneca-Ilamatepec","department":"Ahuachapán","busyness":43,"is_live":true,"info":"Ahora: Por lo general, no está tan concurrido","peak_hour":"4 p.m.","peak_score":68,"rating":null,"slug":"reserva-de-biosfera-apaneca-ilamatepec","featured":false,"verified":true}},{"type":"Feature","geometry":{"type":"Point","coordinates":[-89.391396,13.7977896]},"properties":{"name":"Parque Arqueológico San Andrés","department":"La Libertad","busyness":null,"is_live":false,"info":"Sin lectura de intensidad disponible","peak_hour":"","peak_score":null,"rating":4.5,"slug":"ruta-arqueologica","featured":false,"verified":true}},{"type":"Feature","geometry":{"type":"Point","coordinates":[-88.11591279999999,13.7435504]},"properties":{"name":"Ruta De Paz","department":"Morazán","busyness":null,"is_live":false,"info":"Sin lectura de intensidad disponible","peak_hour":"","peak_score":null,"rating":null,"slug":"ruta-de-paz","featured":false,"verified":true}},{"type":"Feature","geometry":{"type":"Point","coordinates":[-89.6712439,13.9879619]},"properties":{"name":"Parque Arqueológico de Casa Blanca","department":"Santa Ana","busyness":null,"is_live":false,"info":"Sin lectura de intensidad disponible","peak_hour":"","peak_score":null,"rating":4.5,"slug":"sitio-arqueologico-casa-blanca","featured":false,"verified":true}},{"type":"Feature","geometry":{"type":"Point","coordinates":[-89.391396,13.7977896]},"properties":{"name":"Parque Arqueológico San Andrés","department":"La Libertad","busyness":null,"is_live":false,"info":"Sin lectura de intensidad disponible","peak_hour":"","peak_score":null,"rating":4.5,"slug":"sitio-arqueologico-san-andres","featured":false,"verified":true}},{"type":"Feature","geometry":{"type":"Point","coordinates":[-88.1150253,13.8986065]},"properties":{"name":"Plaza Memorial El Mozote","department":"Morazán","busyness":77,"is_live":true,"info":"Ahora: Por lo general, está un poco concurrido","peak_hour":"3 p.m.","peak_score":80,"rating":4.6,"slug":"sitio-historico-el-mozote","featured":false,"verified":true}},{"type":"Feature","geometry":{"type":"Point","coordinates":[-89.55665429999999,13.9953129]},"properties":{"name":"Teatro Nacional de Santa Ana","department":"Santa Ana","busyness":null,"is_live":false,"info":"Sin lectura de intensidad disponible","peak_hour":"","peak_score":null,"rating":4.8,"slug":"teatro-de-santa-ana","featured":false,"verified":true}},{"type":"Feature","geometry":{"type":"Point","coordinates":[-89.6326382,13.813657599999999]},"properties":{"name":"Volcan de Izalco","department":"Sonsonate","busyness":null,"is_live":false,"info":"Sin lectura de intensidad disponible","peak_hour":"","peak_score":null,"rating":4.7,"slug":"volcan-de-izalco","featured":false,"verified":true}},{"type":"Feature","geometry":{"type":"Point","coordinates":[-89.2870993,13.7365824]},"properties":{"name":"El Boqueron","department":"San Salvador","busyness":null,"is_live":false,"info":"Sin lectura de intensidad disponible","peak_hour":"","peak_score":null,"rating":4.7,"slug":"volcan-de-san-salvador-boqueron","featured":false,"verified":true}},{"type":"Feature","geometry":{"type":"Point","coordinates":[-89.81719199999999,13.9154281]},"properties":{"name":"Los Ausoles","department":"Ahuachapán","busyness":95,"is_live":true,"info":"Menos concurrido de lo habitual","peak_hour":"2 p.m.","peak_score":100,"rating":4.5,"slug":"ausoles-de-ahuachapan","featured":false,"verified":false}},{"type":"Feature","geometry":{"type":"Point","coordinates":[-88.4421941,13.347471299999999]},"properties":{"name":"Colonia Alberto Masferrer","department":"Usulután","busyness":null,"is_live":false,"info":"Sin lectura de intensidad disponible","peak_hour":"","peak_score":null,"rating":null,"slug":"casa-museo-alberto-masferrer","featured":false,"verified":false}},{"type":"Feature","geometry":{"type":"Point","coordinates":[-89.78558249999999,13.744705699999999]},"properties":{"name":"Cascada Tepechapa","department":"Ahuachapán","busyness":null,"is_live":false,"info":"Sin lectura de intensidad disponible","peak_hour":"","peak_score":null,"rating":5,"slug":"cascada-de-tepechapa","featured":false,"verified":false}},{"type":"Feature","geometry":{"type":"Point","coordinates":[-89.8552323,13.824135499999999]},"properties":{"name":"Cascadas de Don Juan","department":"Sonsonate","busyness":null,"is_live":false,"info":"Sin lectura de intensidad disponible","peak_hour":"","peak_score":null,"rating":4.4,"slug":"cascada-don-juan","featured":false,"verified":false}},{"type":"Feature","geometry":{"type":"Point","coordinates":[-89.1112924,13.9018897]},"properties":{"name":"Volcán Guazapa","department":"San Salvador","busyness":null,"is_live":false,"info":"Sin lectura de intensidad disponible","peak_hour":"","peak_score":null,"rating":4.4,"slug":"cerro-de-guazapa","featured":false,"verified":false}},{"type":"Feature","geometry":{"type":"Point","coordinates":[-88.95,13.7166667]},"properties":{"name":"Cerro de Las Pavas","department":"Chalatenango","busyness":null,"is_live":false,"info":"Sin lectura de intensidad disponible","peak_hour":"","peak_score":null,"rating":4.3,"slug":"cerro-de-las-pavas","featured":false,"verified":false}},{"type":"Feature","geometry":{"type":"Point","coordinates":[-89.62527779999999,13.8277778]},"properties":{"name":"Cerro Verde","department":"Sonsonate","busyness":null,"is_live":false,"info":"Sin lectura de intensidad disponible","peak_hour":"","peak_score":null,"rating":4.7,"slug":"cerro-verde","featured":false,"verified":false}},{"type":"Feature","geometry":{"type":"Point","coordinates":[-89.67170279999999,13.995678199999999]},"properties":{"name":"Balneario El Trapiche • Chalchuapa, Santa Ana Oeste","department":"Santa Ana","busyness":89,"is_live":true,"info":"Un poco concurrido","peak_hour":"2 p.m.","peak_score":100,"rating":4.4,"slug":"complejo-arqueologico-el-trapiche-chalchuapa","featured":false,"verified":false}},{"type":"Feature","geometry":{"type":"Point","coordinates":[-88.9492831,13.940309]},"properties":{"name":"Río Lempa","department":"Usulután","busyness":null,"is_live":false,"info":"Sin lectura de intensidad disponible","peak_hour":"","peak_score":null,"rating":4.4,"slug":"desembocadura-del-rio-lempa","featured":false,"verified":false}},{"type":"Feature","geometry":{"type":"Point","coordinates":[-89.72488249999999,13.7181271]},"properties":{"name":"Museo del Ferrocarril","department":"Sonsonate","busyness":23,"is_live":true,"info":"Está un poco concurrido","peak_hour":"9:00","peak_score":99,"rating":4.4,"slug":"estacion-del-ferrocarril-de-sonsonate","featured":false,"verified":false}},{"type":"Feature","geometry":{"type":"Point","coordinates":[-87.5791287,13.2087977]},"properties":{"name":"Golfo de Fonseca","department":"La Unión","busyness":null,"is_live":false,"info":"Sin lectura de intensidad disponible","peak_hour":"","peak_score":null,"rating":null,"slug":"golfo-de-fonseca-la-union","featured":false,"verified":false}},{"type":"Feature","geometry":{"type":"Point","coordinates":[-89.27861949999999,13.7000085]},"properties":{"name":"Ecoparque El Espino","department":"Ahuachapán","busyness":79,"is_live":true,"info":"Un poco concurrido","peak_hour":"9 a.m.","peak_score":100,"rating":4.6,"slug":"grutas-de-el-espino","featured":false,"verified":false}},{"type":"Feature","geometry":{"type":"Point","coordinates":[-87.716667,13.2]},"properties":{"name":"Meanguera","department":"La Unión","busyness":null,"is_live":false,"info":"Sin lectura de intensidad disponible","peak_hour":"","peak_score":null,"rating":4.4,"slug":"isla-de-meanguera","featured":false,"verified":false}},{"type":"Feature","geometry":{"type":"Point","coordinates":[-88.6166667,13.2333333]},"properties":{"name":"Isla El Espíritu Santo","department":"Usulután","busyness":null,"is_live":false,"info":"Sin lectura de intensidad disponible","peak_hour":"","peak_score":null,"rating":5,"slug":"isla-el-espiritu-santo","featured":false,"verified":false}},{"type":"Feature","geometry":{"type":"Point","coordinates":[-89.0466016,13.6691843]},"properties":{"name":"Lago de Ilopango","department":"San Salvador","busyness":null,"is_live":false,"info":"Sin lectura de intensidad disponible","peak_hour":"","peak_score":null,"rating":4.5,"slug":"lago-de-ilopango","featured":false,"verified":false}},{"type":"Feature","geometry":{"type":"Point","coordinates":[-88.06564449999999,13.310984699999999]},"properties":{"name":"Laguna de Olomega","department":"San Miguel","busyness":null,"is_live":false,"info":"Sin lectura de intensidad disponible","peak_hour":"","peak_score":null,"rating":4.5,"slug":"laguna-de-olomega","featured":false,"verified":false}},{"type":"Feature","geometry":{"type":"Point","coordinates":[-89.7833333,13.899999999999999]},"properties":{"name":"Cerro Laguna Verde","department":"Ahuachapán","busyness":null,"is_live":false,"info":"Sin lectura de intensidad disponible","peak_hour":"","peak_score":null,"rating":4.6,"slug":"laguna-verde-de-ahuachapan","featured":false,"verified":false}},{"type":"Feature","geometry":{"type":"Point","coordinates":[-89.7317861,13.835792999999999]},"properties":{"name":"Chorros de la Calera","department":"La Libertad","busyness":null,"is_live":false,"info":"Sin lectura de intensidad disponible","peak_hour":"","peak_score":null,"rating":4.2,"slug":"los-chorros-de-la-calera","featured":false,"verified":false}},{"type":"Feature","geometry":{"type":"Point","coordinates":[-89.3187665,13.486659999999999]},"properties":{"name":"La Libertad","department":"La Libertad","busyness":null,"is_live":false,"info":"Sin lectura de intensidad disponible","peak_hour":"","peak_score":null,"rating":4.5,"slug":"malecon-de-puerto-la-libertad","featured":false,"verified":false}},{"type":"Feature","geometry":{"type":"Point","coordinates":[-89.1956216,13.6952132]},"properties":{"name":"Mercado Central de San Salvador","department":"San Salvador","busyness":52,"is_live":true,"info":"Poco concurrido","peak_hour":"10 a.m.","peak_score":80,"rating":4.2,"slug":"mercado-central-de-san-salvador","featured":false,"verified":false}},{"type":"Feature","geometry":{"type":"Point","coordinates":[-89.18751929999999,13.699041999999999]},"properties":{"name":"Mercado Ex-Cuartel","department":"San Salvador","busyness":38,"is_live":true,"info":"Poco concurrido","peak_hour":"12 p.m.","peak_score":39,"rating":4.1,"slug":"mercado-ex-cuartel-san-salvador","featured":false,"verified":false}},{"type":"Feature","geometry":{"type":"Point","coordinates":[-89.2329776,13.690000699999999]},"properties":{"name":"Mercado Nacional de Artesanías","department":"San Salvador","busyness":57,"is_live":true,"info":"Poco concurrido","peak_hour":"3 p.m.","peak_score":61,"rating":4.5,"slug":"mercado-nacional-de-artesanias","featured":false,"verified":false}},{"type":"Feature","geometry":{"type":"Point","coordinates":[-89.2119355,13.7060853]},"properties":{"name":"Metrocentro San Salvador","department":"San Salvador","busyness":64,"is_live":true,"info":"Poco concurrido","peak_hour":"3 p.m.","peak_score":70,"rating":4.4,"slug":"metrocentro-san-salvador","featured":false,"verified":false}},{"type":"Feature","geometry":{"type":"Point","coordinates":[-89.2244339,13.7013266]},"properties":{"name":"Monumento al Divino Salvador del Mundo","department":"San Salvador","busyness":32,"is_live":true,"info":"Poco concurrido","peak_hour":"4 p.m.","peak_score":34,"rating":4.6,"slug":"monumento-al-divino-salvador-del-mundo","featured":false,"verified":false}},{"type":"Feature","geometry":{"type":"Point","coordinates":[-89.24853859999999,13.679445699999999]},"properties":{"name":"Multiplaza","department":"La Libertad","busyness":80,"is_live":true,"info":"Un poco concurrido","peak_hour":"3 p.m.","peak_score":89,"rating":4.6,"slug":"multiplaza-san-salvador","featured":false,"verified":false}},{"type":"Feature","geometry":{"type":"Point","coordinates":[-89.2049579,13.7092227]},"properties":{"name":"Museo de la Palabra y la Imagen","department":"San Salvador","busyness":null,"is_live":true,"info":"Sin lectura de intensidad disponible","peak_hour":"","peak_score":null,"rating":4.7,"slug":"museo-de-la-palabra-y-la-imagen","featured":false,"verified":false}},{"type":"Feature","geometry":{"type":"Point","coordinates":[-89.2894733,13.6757837]},"properties":{"name":"Santa Tecla","department":"La Libertad","busyness":null,"is_live":false,"info":"Sin lectura de intensidad disponible","peak_hour":"","peak_score":null,"rating":null,"slug":"nueva-san-salvador-santa-tecla-centro-historico","featured":false,"verified":false}},{"type":"Feature","geometry":{"type":"Point","coordinates":[-89.1703203,14.316986199999999]},"properties":{"name":"Parroquia Dulce Nombre de Maria","department":"Chalatenango","busyness":null,"is_live":false,"info":"Sin lectura de intensidad disponible","peak_hour":"","peak_score":null,"rating":4.9,"slug":"palma-iglesia-de-la-palma","featured":false,"verified":false}},{"type":"Feature","geometry":{"type":"Point","coordinates":[-88.10577049999999,13.9223427]},"properties":{"name":"Puente Río Sapo","department":"Morazán","busyness":88,"is_live":true,"info":"Máxima concurrencia","peak_hour":"2 p.m.","peak_score":100,"rating":4.7,"slug":"rio-sapo","featured":false,"verified":false}}]}