{"type":"FeatureCollection","features":[{"type":"Feature","geometry":{"type":"Point","coordinates":[-88.5235185,13.4777028]},"properties":{"osm_id":"node/2601741196","category":"mountain","name":"Sin nombre","elevation_m":null,"website":"","phone":"","access":"","image":""}},{"type":"Feature","geometry":{"type":"Point","coordinates":[-88.536586,13.5167306]},"properties":{"osm_id":"node/2601741427","category":"mountain","name":"Sin nombre","elevation_m":null,"website":"","phone":"","access":"","image":""}},{"type":"Feature","geometry":{"type":"Point","coordinates":[-89.2564853,13.7453787]},"properties":{"osm_id":"node/2601741515","category":"mountain","name":"Cerro El Picacho","elevation_m":1957.97,"website":"","phone":"","access":"","image":""}},{"type":"Feature","geometry":{"type":"Point","coordinates":[-87.983057,13.7337981]},"properties":{"osm_id":"node/3275561224","category":"mountain","name":"Cerro Cotepeque","elevation_m":null,"website":"","phone":"","access":"","image":""}},{"type":"Feature","geometry":{"type":"Point","coordinates":[-89.3173764,13.7525796]},"properties":{"osm_id":"node/3670939066","category":"mountain","name":"Cerro Amatepeque","elevation_m":1405,"website":"","phone":"","access":"","image":""}},{"type":"Feature","geometry":{"type":"Point","coordinates":[-89.2638527,13.8175116]},"properties":{"osm_id":"node/3670939067","category":"mountain","name":"Cerro El Cerrito","elevation_m":613.69,"website":"","phone":"","access":"","image":""}},{"type":"Feature","geometry":{"type":"Point","coordinates":[-89.3316411,13.8130828]},"properties":{"osm_id":"node/3670939068","category":"mountain","name":"Cerro El Playón","elevation_m":665.46,"website":"","phone":"","access":"","image":""}},{"type":"Feature","geometry":{"type":"Point","coordinates":[-89.3654175,13.837454]},"properties":{"osm_id":"node/3670939069","category":"mountain","name":"Cerro El Chichipate","elevation_m":null,"website":"","phone":"","access":"","image":""}},{"type":"Feature","geometry":{"type":"Point","coordinates":[-89.3761506,13.8332172]},"properties":{"osm_id":"node/3670939070","category":"mountain","name":"Cerro La Leona","elevation_m":615,"website":"","phone":"","access":"","image":""}},{"type":"Feature","geometry":{"type":"Point","coordinates":[-89.3872547,13.8256145]},"properties":{"osm_id":"node/3670939071","category":"mountain","name":"Cerro Andalucía","elevation_m":605,"website":"","phone":"","access":"","image":""}},{"type":"Feature","geometry":{"type":"Point","coordinates":[-89.3407344,13.8414804]},"properties":{"osm_id":"node/3670939072","category":"mountain","name":"Montaña Las Viboras","elevation_m":null,"website":"","phone":"","access":"","image":""}},{"type":"Feature","geometry":{"type":"Point","coordinates":[-89.3502754,13.8356118]},"properties":{"osm_id":"node/3670939073","category":"mountain","name":"Montaña Laguna Ciega","elevation_m":null,"website":"","phone":"","access":"","image":""}},{"type":"Feature","geometry":{"type":"Point","coordinates":[-89.3465073,13.8301179]},"properties":{"osm_id":"node/3670939074","category":"mountain","name":"Montaña Boca Tronadora","elevation_m":null,"website":"","phone":"","access":"","image":""}},{"type":"Feature","geometry":{"type":"Point","coordinates":[-89.342484,13.8107789]},"properties":{"osm_id":"node/3670939075","category":"mountain","name":"Montaña La Joya de los Negros","elevation_m":null,"website":"","phone":"","access":"","image":""}},{"type":"Feature","geometry":{"type":"Point","coordinates":[-89.6795246,13.9682143]},"properties":{"osm_id":"node/3825765482","category":"mountain","name":"Cerro La Loma","elevation_m":805,"website":"","phone":"","access":"","image":""}},{"type":"Feature","geometry":{"type":"Point","coordinates":[-89.5384826,13.9933002]},"properties":{"osm_id":"node/3845152395","category":"mountain","name":"Cerro Tecana","elevation_m":800.44,"website":"","phone":"","access":"","image":""}},{"type":"Feature","geometry":{"type":"Point","coordinates":[-89.5357843,13.9984897]},"properties":{"osm_id":"node/3845152396","category":"mountain","name":"Cerro El Venado","elevation_m":715,"website":"","phone":"","access":"","image":""}},{"type":"Feature","geometry":{"type":"Point","coordinates":[-89.5305487,14.0011547]},"properties":{"osm_id":"node/3845152397","category":"mountain","name":"Cerro La Esperanza","elevation_m":795,"website":"","phone":"","access":"","image":""}},{"type":"Feature","geometry":{"type":"Point","coordinates":[-89.535784,14.0091398]},"properties":{"osm_id":"node/3846083108","category":"mountain","name":"Cerro Santo Domingo","elevation_m":258,"website":"","phone":"","access":"","image":""}},{"type":"Feature","geometry":{"type":"Point","coordinates":[-89.5751893,14.0121245]},"properties":{"osm_id":"node/3846083109","category":"mountain","name":"Cerro San Juan","elevation_m":1019,"website":"","phone":"","access":"","image":""}},{"type":"Feature","geometry":{"type":"Point","coordinates":[-89.568209,14.0226849]},"properties":{"osm_id":"node/3846083110","category":"mountain","name":"Cerro Sayunza","elevation_m":1115,"website":"","phone":"","access":"","image":""}},{"type":"Feature","geometry":{"type":"Point","coordinates":[-89.366403,13.9747079]},"properties":{"osm_id":"node/3856179683","category":"mountain","name":"Cerro Malpaneca","elevation_m":425,"website":"","phone":"","access":"","image":""}},{"type":"Feature","geometry":{"type":"Point","coordinates":[-89.5777529,13.9986216]},"properties":{"osm_id":"node/3866324774","category":"mountain","name":"Cerro Santa Lucia","elevation_m":null,"website":"","phone":"","access":"","image":""}},{"type":"Feature","geometry":{"type":"Point","coordinates":[-89.2277311,13.6640216]},"properties":{"osm_id":"node/3909985749","category":"mountain","name":"Cerro Soledad","elevation_m":998.73,"website":"","phone":"","access":"","image":""}},{"type":"Feature","geometry":{"type":"Point","coordinates":[-89.5778493,13.6932981]},"properties":{"osm_id":"node/3910881531","category":"mountain","name":"Cerro El Palmar","elevation_m":820,"website":"","phone":"","access":"","image":""}},{"type":"Feature","geometry":{"type":"Point","coordinates":[-89.5536592,13.695476]},"properties":{"osm_id":"node/3910881796","category":"mountain","name":"Cerro La Cruz","elevation_m":596,"website":"","phone":"","access":"","image":""}},{"type":"Feature","geometry":{"type":"Point","coordinates":[-89.5910413,13.7167993]},"properties":{"osm_id":"node/3910881799","category":"mountain","name":"Cerro El Morro","elevation_m":740,"website":"","phone":"","access":"","image":""}},{"type":"Feature","geometry":{"type":"Point","coordinates":[-89.586019,13.7087739]},"properties":{"osm_id":"node/3910881800","category":"mountain","name":"Montana El Nispero","elevation_m":null,"website":"","phone":"","access":"","image":""}},{"type":"Feature","geometry":{"type":"Point","coordinates":[-89.6461922,13.8980833]},"properties":{"osm_id":"node/3911917536","category":"mountain","name":"Cerro El Retiro","elevation_m":1474.74,"website":"","phone":"","access":"","image":""}},{"type":"Feature","geometry":{"type":"Point","coordinates":[-89.6850738,13.9102421]},"properties":{"osm_id":"node/3911917537","category":"mountain","name":"Cerro La Cima","elevation_m":1809,"website":"","phone":"","access":"","image":""}},{"type":"Feature","geometry":{"type":"Point","coordinates":[-89.6810897,13.8998238]},"properties":{"osm_id":"node/3911917538","category":"mountain","name":"Cerro Peña Blanca","elevation_m":1811,"website":"","phone":"","access":"","image":""}},{"type":"Feature","geometry":{"type":"Point","coordinates":[-89.6898063,13.9048553]},"properties":{"osm_id":"node/3911917539","category":"mountain","name":"Cerro Piedra Sellada","elevation_m":1965.86,"website":"","phone":"","access":"","image":""}},{"type":"Feature","geometry":{"type":"Point","coordinates":[-89.6854503,13.8993252]},"properties":{"osm_id":"node/3911917540","category":"mountain","name":"Cerro Ojo de Agua","elevation_m":1865,"website":"","phone":"","access":"","image":""}},{"type":"Feature","geometry":{"type":"Point","coordinates":[-89.7008355,13.8934929]},"properties":{"osm_id":"node/3911917541","category":"mountain","name":"Cerro El Aguila","elevation_m":2035.97,"website":"","phone":"","access":"","image":""}},{"type":"Feature","geometry":{"type":"Point","coordinates":[-89.6922739,13.8958883]},"properties":{"osm_id":"node/3911917542","category":"mountain","name":"Montaña El Olimpo","elevation_m":null,"website":"","phone":"","access":"","image":""}},{"type":"Feature","geometry":{"type":"Point","coordinates":[-89.6873386,13.8728495]},"properties":{"osm_id":"node/3911917543","category":"mountain","name":"Cerro Los Naranjos","elevation_m":1990,"website":"","phone":"","access":"","image":""}},{"type":"Feature","geometry":{"type":"Point","coordinates":[-89.7149976,13.8978046]},"properties":{"osm_id":"node/3911917544","category":"mountain","name":"Cerro Los Mojones","elevation_m":1951.51,"website":"","phone":"","access":"","image":""}},{"type":"Feature","geometry":{"type":"Point","coordinates":[-89.71783,13.9004708]},"properties":{"osm_id":"node/3911917545","category":"mountain","name":"Cerro Las Ranas","elevation_m":1960,"website":"","phone":"","access":"","image":""}},{"type":"Feature","geometry":{"type":"Point","coordinates":[-89.7275288,13.9009082]},"properties":{"osm_id":"node/3911917546","category":"mountain","name":"Cerro de la Laguna","elevation_m":1990,"website":"","phone":"","access":"","image":""}},{"type":"Feature","geometry":{"type":"Point","coordinates":[-89.6738592,14.0163573]},"properties":{"osm_id":"node/3923255030","category":"mountain","name":"Cerro Talchipegua","elevation_m":848,"website":"","phone":"","access":"","image":""}},{"type":"Feature","geometry":{"type":"Point","coordinates":[-89.6533914,14.0338141]},"properties":{"osm_id":"node/3923262890","category":"mountain","name":"Cerro Santa Rosa Senca","elevation_m":971,"website":"","phone":"","access":"","image":""}},{"type":"Feature","geometry":{"type":"Point","coordinates":[-89.3915541,13.5420675]},"properties":{"osm_id":"node/3946998295","category":"mountain","name":"Cerro Redondo","elevation_m":438,"website":"","phone":"","access":"","image":""}},{"type":"Feature","geometry":{"type":"Point","coordinates":[-89.394871,13.5476908]},"properties":{"osm_id":"node/3946998296","category":"mountain","name":"Cerro Pueblo Viejo","elevation_m":435,"website":"","phone":"","access":"","image":""}},{"type":"Feature","geometry":{"type":"Point","coordinates":[-89.396668,13.5561803]},"properties":{"osm_id":"node/3946998297","category":"mountain","name":"Cerro El Portal","elevation_m":445,"website":"","phone":"","access":"","image":""}},{"type":"Feature","geometry":{"type":"Point","coordinates":[-89.3911595,13.5180186]},"properties":{"osm_id":"node/3960075782","category":"mountain","name":"Loma El Tunco","elevation_m":null,"website":"","phone":"","access":"","image":""}},{"type":"Feature","geometry":{"type":"Point","coordinates":[-89.3767406,13.5946402]},"properties":{"osm_id":"node/3962702103","category":"mountain","name":"Cerro El Peñon","elevation_m":958.13,"website":"","phone":"","access":"","image":""}},{"type":"Feature","geometry":{"type":"Point","coordinates":[-89.3917513,13.6367522]},"properties":{"osm_id":"node/3962801763","category":"mountain","name":"Cerro El Refugio","elevation_m":1215,"website":"","phone":"","access":"","image":""}},{"type":"Feature","geometry":{"type":"Point","coordinates":[-89.403533,13.6468741]},"properties":{"osm_id":"node/3962801764","category":"mountain","name":"Cerro de Albesía","elevation_m":1334,"website":"","phone":"","access":"","image":""}},{"type":"Feature","geometry":{"type":"Point","coordinates":[-89.3969893,13.5755068]},"properties":{"osm_id":"node/3962801765","category":"mountain","name":"Cerro San Rafael","elevation_m":555,"website":"","phone":"","access":"","image":""}},{"type":"Feature","geometry":{"type":"Point","coordinates":[-89.3487554,13.569261]},"properties":{"osm_id":"node/3962801766","category":"mountain","name":"Cerro El Mal Paso","elevation_m":507,"website":"","phone":"","access":"","image":""}},{"type":"Feature","geometry":{"type":"Point","coordinates":[-89.3493358,13.5571367]},"properties":{"osm_id":"node/3962801767","category":"mountain","name":"Cerro El Bonete","elevation_m":452,"website":"","phone":"","access":"","image":""}},{"type":"Feature","geometry":{"type":"Point","coordinates":[-89.3659156,13.5122385]},"properties":{"osm_id":"node/3962801768","category":"mountain","name":"Cerro La Granja","elevation_m":248,"website":"","phone":"","access":"","image":""}},{"type":"Feature","geometry":{"type":"Point","coordinates":[-89.3516033,13.5035173]},"properties":{"osm_id":"node/3962801769","category":"mountain","name":"Cerro El Tigre","elevation_m":204,"website":"","phone":"","access":"","image":""}},{"type":"Feature","geometry":{"type":"Point","coordinates":[-89.36495,13.5000955]},"properties":{"osm_id":"node/3962801770","category":"mountain","name":"Cerro El Tecolote","elevation_m":145,"website":"","phone":"","access":"","image":""}},{"type":"Feature","geometry":{"type":"Point","coordinates":[-89.4044536,13.5254448]},"properties":{"osm_id":"node/3962801771","category":"mountain","name":"Cerro El Nance","elevation_m":385,"website":"","phone":"","access":"","image":""}},{"type":"Feature","geometry":{"type":"Point","coordinates":[-89.4082087,13.5223571]},"properties":{"osm_id":"node/3962801772","category":"mountain","name":"Montaña El Ranchon","elevation_m":null,"website":"","phone":"","access":"","image":""}},{"type":"Feature","geometry":{"type":"Point","coordinates":[-89.4169419,13.5170371]},"properties":{"osm_id":"node/3962801773","category":"mountain","name":"Cerro El Sunzal o Izcanal","elevation_m":256,"website":"","phone":"","access":"","image":""}},{"type":"Feature","geometry":{"type":"Point","coordinates":[-89.404965,13.5364131]},"properties":{"osm_id":"node/3962801774","category":"mountain","name":"Montaña El Cenizo","elevation_m":null,"website":"","phone":"","access":"","image":""}},{"type":"Feature","geometry":{"type":"Point","coordinates":[-89.4044793,13.5404085]},"properties":{"osm_id":"node/3962801775","category":"mountain","name":"Cerro El Cenizo","elevation_m":425,"website":"","phone":"","access":"","image":""}},{"type":"Feature","geometry":{"type":"Point","coordinates":[-89.419909,13.5669581]},"properties":{"osm_id":"node/3962801776","category":"mountain","name":"Cerro El Pital","elevation_m":575,"website":"","phone":"","access":"","image":""}},{"type":"Feature","geometry":{"type":"Point","coordinates":[-89.4183663,13.5876481]},"properties":{"osm_id":"node/3962802443","category":"mountain","name":"Cerro Santa María","elevation_m":null,"website":"","phone":"","access":"","image":""}},{"type":"Feature","geometry":{"type":"Point","coordinates":[-89.415309,13.5862097]},"properties":{"osm_id":"node/3962802444","category":"mountain","name":"Montaña El Tempisque","elevation_m":null,"website":"","phone":"","access":"","image":""}},{"type":"Feature","geometry":{"type":"Point","coordinates":[-89.4254402,13.5885965]},"properties":{"osm_id":"node/3962802445","category":"mountain","name":"Cerro El Infierno","elevation_m":482,"website":"","phone":"","access":"","image":""}},{"type":"Feature","geometry":{"type":"Point","coordinates":[-89.4233912,13.5972426]},"properties":{"osm_id":"node/3962802446","category":"mountain","name":"Cerro El Gallinero","elevation_m":635,"website":"","phone":"","access":"","image":""}},{"type":"Feature","geometry":{"type":"Point","coordinates":[-89.4107882,13.5977326]},"properties":{"osm_id":"node/3962802447","category":"mountain","name":"Cerro El Chuluma","elevation_m":null,"website":"","phone":"","access":"","image":""}},{"type":"Feature","geometry":{"type":"Point","coordinates":[-89.4152603,13.6050507]},"properties":{"osm_id":"node/3962802448","category":"mountain","name":"Cerro La Gloria","elevation_m":926.23,"website":"","phone":"","access":"","image":""}},{"type":"Feature","geometry":{"type":"Point","coordinates":[-89.4018769,13.6071594]},"properties":{"osm_id":"node/3962802449","category":"mountain","name":"Cerro El Níspero","elevation_m":945,"website":"","phone":"","access":"","image":""}},{"type":"Feature","geometry":{"type":"Point","coordinates":[-89.4029068,13.6150843]},"properties":{"osm_id":"node/3962802450","category":"mountain","name":"Cerro San Joaquín","elevation_m":1113.42,"website":"","phone":"","access":"","image":""}},{"type":"Feature","geometry":{"type":"Point","coordinates":[-89.4084214,13.6211321]},"properties":{"osm_id":"node/3962802451","category":"mountain","name":"Cerro El Capulín","elevation_m":1025,"website":"","phone":"","access":"","image":""}},{"type":"Feature","geometry":{"type":"Point","coordinates":[-89.40943,13.6283267]},"properties":{"osm_id":"node/3962802452","category":"mountain","name":"Cerro Santa Lucía","elevation_m":1248,"website":"","phone":"","access":"","image":""}},{"type":"Feature","geometry":{"type":"Point","coordinates":[-89.411683,13.6319969]},"properties":{"osm_id":"node/3962802453","category":"mountain","name":"Cerro La Chichicúa","elevation_m":1245,"website":"","phone":"","access":"","image":""}},{"type":"Feature","geometry":{"type":"Point","coordinates":[-89.4327115,13.6021749]},"properties":{"osm_id":"node/3963259201","category":"mountain","name":"Cero La campana","elevation_m":636,"website":"","phone":"","access":"","image":""}},{"type":"Feature","geometry":{"type":"Point","coordinates":[-89.6301546,13.8256523]},"properties":{"osm_id":"node/3969615756","category":"mountain","name":"Montaña El Salto del Muerto","elevation_m":null,"website":"","phone":"","access":"","image":""}},{"type":"Feature","geometry":{"type":"Point","coordinates":[-89.5983645,13.8025946]},"properties":{"osm_id":"node/3969616057","category":"mountain","name":"Cerro La Olla","elevation_m":1270,"website":"","phone":"","access":"","image":""}},{"type":"Feature","geometry":{"type":"Point","coordinates":[-89.5955669,13.8053234]},"properties":{"osm_id":"node/3969616058","category":"mountain","name":"Cerro Quemado","elevation_m":1323.29,"website":"","phone":"","access":"","image":""}},{"type":"Feature","geometry":{"type":"Point","coordinates":[-89.5878273,13.8098114]},"properties":{"osm_id":"node/3969616059","category":"mountain","name":"Cerro Chino","elevation_m":1240,"website":"","phone":"","access":"","image":""}},{"type":"Feature","geometry":{"type":"Point","coordinates":[-89.5686645,13.8460678]},"properties":{"osm_id":"node/3969621854","category":"mountain","name":"Cerro de Afate","elevation_m":809,"website":"","phone":"","access":"","image":""}},{"type":"Feature","geometry":{"type":"Point","coordinates":[-89.5760799,13.8417415]},"properties":{"osm_id":"node/3969621855","category":"mountain","name":"Cerro Pacho","elevation_m":947,"website":"","phone":"","access":"","image":""}},{"type":"Feature","geometry":{"type":"Point","coordinates":[-89.5823082,13.8477573]},"properties":{"osm_id":"node/3969621856","category":"mountain","name":"Cerro Guacamayero","elevation_m":905,"website":"","phone":"","access":"","image":""}},{"type":"Feature","geometry":{"type":"Point","coordinates":[-89.5954658,13.8662628]},"properties":{"osm_id":"node/3969622457","category":"mountain","name":"Cerro Mascarón","elevation_m":1602,"website":"","phone":"","access":"","image":""}},{"type":"Feature","geometry":{"type":"Point","coordinates":[-89.5847267,13.8674761]},"properties":{"osm_id":"node/3969622458","category":"mountain","name":"Cerro El Pajal","elevation_m":1305,"website":"","phone":"","access":"","image":""}},{"type":"Feature","geometry":{"type":"Point","coordinates":[-89.5467251,13.8135768]},"properties":{"osm_id":"node/3969622459","category":"mountain","name":"Cerro Alto","elevation_m":955,"website":"","phone":"","access":"","image":""}},{"type":"Feature","geometry":{"type":"Point","coordinates":[-89.5527252,13.8165902]},"properties":{"osm_id":"node/3969622460","category":"mountain","name":"Montaña Cerro Alto","elevation_m":null,"website":"","phone":"","access":"","image":""}},{"type":"Feature","geometry":{"type":"Point","coordinates":[-89.6048772,13.8153532]},"properties":{"osm_id":"node/3969648766","category":"mountain","name":"Cerro El Astillero","elevation_m":1495,"website":"","phone":"","access":"","image":""}},{"type":"Feature","geometry":{"type":"Point","coordinates":[-89.6106664,13.8113737]},"properties":{"osm_id":"node/3969648767","category":"mountain","name":"Cerro El Conejal","elevation_m":1495,"website":"","phone":"","access":"","image":""}},{"type":"Feature","geometry":{"type":"Point","coordinates":[-89.6056578,13.8092418]},"properties":{"osm_id":"node/3969648768","category":"mountain","name":"Cerro Miguelito","elevation_m":1380,"website":"","phone":"","access":"","image":""}},{"type":"Feature","geometry":{"type":"Point","coordinates":[-89.7965739,13.8554557]},"properties":{"osm_id":"node/3975284957","category":"mountain","name":"El Cerrito","elevation_m":1622,"website":"","phone":"","access":"","image":""}},{"type":"Feature","geometry":{"type":"Point","coordinates":[-89.8145287,13.8705443]},"properties":{"osm_id":"node/3975284958","category":"mountain","name":"Cerro Himalaya","elevation_m":1726,"website":"","phone":"","access":"","image":""}},{"type":"Feature","geometry":{"type":"Point","coordinates":[-89.8158622,13.8684762]},"properties":{"osm_id":"node/3975284959","category":"mountain","name":"Cerro Cumbre del Triunfo","elevation_m":1575,"website":"","phone":"","access":"","image":""}},{"type":"Feature","geometry":{"type":"Point","coordinates":[-89.8009641,13.8821263]},"properties":{"osm_id":"node/3975284960","category":"mountain","name":"Cerro Las Ninfas","elevation_m":1745,"website":"","phone":"","access":"","image":""}},{"type":"Feature","geometry":{"type":"Point","coordinates":[-89.5558216,14.0946955]},"properties":{"osm_id":"node/3977282987","category":"mountain","name":"Cerro El Pinalón","elevation_m":1145,"website":"","phone":"","access":"","image":""}},{"type":"Feature","geometry":{"type":"Point","coordinates":[-89.557846,14.1064348]},"properties":{"osm_id":"node/3977282988","category":"mountain","name":"Cerro Los Chivos","elevation_m":1195,"website":"","phone":"","access":"","image":""}},{"type":"Feature","geometry":{"type":"Point","coordinates":[-89.5508753,14.1118936]},"properties":{"osm_id":"node/3977282989","category":"mountain","name":"Cerro El Brujo","elevation_m":1068,"website":"","phone":"","access":"","image":""}},{"type":"Feature","geometry":{"type":"Point","coordinates":[-89.5390285,14.1153033]},"properties":{"osm_id":"node/3977282990","category":"mountain","name":"Cerro Las Lomas","elevation_m":777,"website":"","phone":"","access":"","image":""}},{"type":"Feature","geometry":{"type":"Point","coordinates":[-89.5659629,14.1139199]},"properties":{"osm_id":"node/3977282991","category":"mountain","name":"Cerro Tecomatán","elevation_m":1212,"website":"","phone":"","access":"","image":""}},{"type":"Feature","geometry":{"type":"Point","coordinates":[-89.5755116,14.1224102]},"properties":{"osm_id":"node/3977282992","category":"mountain","name":"Cerro Tabanco","elevation_m":815,"website":"","phone":"","access":"","image":""}},{"type":"Feature","geometry":{"type":"Point","coordinates":[-89.5733977,14.1320786]},"properties":{"osm_id":"node/3977282993","category":"mountain","name":"Cerro Cimarrón","elevation_m":765,"website":"","phone":"","access":"","image":""}},{"type":"Feature","geometry":{"type":"Point","coordinates":[-89.5827033,14.3200441]},"properties":{"osm_id":"node/3978712424","category":"mountain","name":"Cerro de Ostúa","elevation_m":595,"website":"","phone":"","access":"","image":""}},{"type":"Feature","geometry":{"type":"Point","coordinates":[-87.7014413,13.1710583]},"properties":{"osm_id":"node/3978811286","category":"mountain","name":"Cerro La Trepada Del Majahual","elevation_m":271,"website":"","phone":"","access":"","image":""}},{"type":"Feature","geometry":{"type":"Point","coordinates":[-87.7035028,13.1791676]},"properties":{"osm_id":"node/3978811287","category":"mountain","name":"Cerro El Pueblo","elevation_m":318,"website":"","phone":"","access":"","image":""}},{"type":"Feature","geometry":{"type":"Point","coordinates":[-87.7195002,13.1894673]},"properties":{"osm_id":"node/3978811288","category":"mountain","name":"Cerro Evaristo","elevation_m":494,"website":"","phone":"","access":"","image":""}},{"type":"Feature","geometry":{"type":"Point","coordinates":[-87.7118785,13.1874487]},"properties":{"osm_id":"node/3978811289","category":"mountain","name":"Cerro La Laguna","elevation_m":209,"website":"","phone":"","access":"","image":""}},{"type":"Feature","geometry":{"type":"Point","coordinates":[-89.8620425,13.8720828]},"properties":{"osm_id":"node/3992908666","category":"mountain","name":"Cerro El Chico","elevation_m":1425,"website":"","phone":"","access":"","image":""}},{"type":"Feature","geometry":{"type":"Point","coordinates":[-89.8538599,13.8850017]},"properties":{"osm_id":"node/3992908667","category":"mountain","name":"Cerro La Empalizada","elevation_m":1385,"website":"","phone":"","access":"","image":""}},{"type":"Feature","geometry":{"type":"Point","coordinates":[-89.5148163,13.5181788]},"properties":{"osm_id":"node/3993063766","category":"mountain","name":"Cerro La Cruz","elevation_m":239,"website":"","phone":"","access":"","image":""}},{"type":"Feature","geometry":{"type":"Point","coordinates":[-89.5262286,13.5059681]},"properties":{"osm_id":"node/3993063767","category":"mountain","name":"Cerro El Cerrón","elevation_m":245,"website":"","phone":"","access":"","image":""}},{"type":"Feature","geometry":{"type":"Point","coordinates":[-89.8055347,13.523722]},"properties":{"osm_id":"node/4005116286","category":"mountain","name":"Punta Remedios","elevation_m":null,"website":"","phone":"","access":"","image":""}},{"type":"Feature","geometry":{"type":"Point","coordinates":[-89.7186861,13.8353065]},"properties":{"osm_id":"node/4008127352","category":"mountain","name":"Cerro El Cerrito","elevation_m":1040,"website":"","phone":"","access":"","image":""}},{"type":"Feature","geometry":{"type":"Point","coordinates":[-87.7406556,13.2864357]},"properties":{"osm_id":"node/4059329198","category":"mountain","name":"Isla Martín Pérez","elevation_m":51,"website":"","phone":"","access":"","image":""}},{"type":"Feature","geometry":{"type":"Point","coordinates":[-87.7436134,13.3002288]},"properties":{"osm_id":"node/4059338407","category":"mountain","name":"Isla Ilca","elevation_m":23,"website":"","phone":"","access":"","image":""}},{"type":"Feature","geometry":{"type":"Point","coordinates":[-88.8455114,14.079897]},"properties":{"osm_id":"node/4124608166","category":"mountain","name":"Cerro Anonal","elevation_m":584,"website":"","phone":"","access":"","image":""}},{"type":"Feature","geometry":{"type":"Point","coordinates":[-88.8698873,14.1021034]},"properties":{"osm_id":"node/4124608168","category":"mountain","name":"Cerro Arenilla","elevation_m":null,"website":"","phone":"","access":"","image":""}},{"type":"Feature","geometry":{"type":"Point","coordinates":[-88.9612072,14.0816314]},"properties":{"osm_id":"node/4124608169","category":"mountain","name":"Cerro Barrina","elevation_m":null,"website":"","phone":"","access":"","image":""}},{"type":"Feature","geometry":{"type":"Point","coordinates":[-88.9756268,14.0975735]},"properties":{"osm_id":"node/4124608170","category":"mountain","name":"Cerro Cabrero","elevation_m":null,"website":"","phone":"","access":"","image":""}},{"type":"Feature","geometry":{"type":"Point","coordinates":[-88.9544413,14.0189411]},"properties":{"osm_id":"node/4124608171","category":"mountain","name":"Cerro Cachuco","elevation_m":null,"website":"","phone":"","access":"","image":""}},{"type":"Feature","geometry":{"type":"Point","coordinates":[-88.8301008,14.0346832]},"properties":{"osm_id":"node/4124608172","category":"mountain","name":"Cerro Calera","elevation_m":null,"website":"","phone":"","access":"","image":""}},{"type":"Feature","geometry":{"type":"Point","coordinates":[-88.850947,14.1159701]},"properties":{"osm_id":"node/4124608173","category":"mountain","name":"Cerro Canyuco","elevation_m":722,"website":"","phone":"","access":"","image":""}},{"type":"Feature","geometry":{"type":"Point","coordinates":[-88.9262325,14.1231616]},"properties":{"osm_id":"node/4124608174","category":"mountain","name":"Cerro Carranchagua","elevation_m":1272,"website":"","phone":"","access":"","image":""}},{"type":"Feature","geometry":{"type":"Point","coordinates":[-88.9884598,14.1659359]},"properties":{"osm_id":"node/4124608175","category":"mountain","name":"Cerro Casampulga","elevation_m":878,"website":"","phone":"","access":"","image":""}},{"type":"Feature","geometry":{"type":"Point","coordinates":[-88.8803989,14.1329833]},"properties":{"osm_id":"node/4124608176","category":"mountain","name":"Cerro Cashagua","elevation_m":1232,"website":"","phone":"","access":"","image":""}},{"type":"Feature","geometry":{"type":"Point","coordinates":[-88.8963729,14.0279592]},"properties":{"osm_id":"node/4124608177","category":"mountain","name":"Cerro Chachalasne","elevation_m":591,"website":"","phone":"","access":"","image":""}},{"type":"Feature","geometry":{"type":"Point","coordinates":[-88.9720032,14.0012414]},"properties":{"osm_id":"node/4124608178","category":"mountain","name":"Cerro Chequeres","elevation_m":null,"website":"","phone":"","access":"","image":""}},{"type":"Feature","geometry":{"type":"Point","coordinates":[-88.8195476,14.0965677]},"properties":{"osm_id":"node/4124608179","category":"mountain","name":"Cerro Chichilco","elevation_m":786,"website":"","phone":"","access":"","image":""}},{"type":"Feature","geometry":{"type":"Point","coordinates":[-88.9159972,14.1129233]},"properties":{"osm_id":"node/4124608180","category":"mountain","name":"Cerro China","elevation_m":1296,"website":"","phone":"","access":"","image":""}},{"type":"Feature","geometry":{"type":"Point","coordinates":[-88.9665729,14.1048489]},"properties":{"osm_id":"node/4124608181","category":"mountain","name":"Cerro Chiquero","elevation_m":null,"website":"","phone":"","access":"","image":""}},{"type":"Feature","geometry":{"type":"Point","coordinates":[-88.8175266,14.0325598]},"properties":{"osm_id":"node/4124608182","category":"mountain","name":"Cerro Coyotes","elevation_m":null,"website":"","phone":"","access":"","image":""}},{"type":"Feature","geometry":{"type":"Point","coordinates":[-88.8326531,14.0202425]},"properties":{"osm_id":"node/4124608183","category":"mountain","name":"Cerro Cuyas Cumbres","elevation_m":null,"website":"","phone":"","access":"","image":""}},{"type":"Feature","geometry":{"type":"Point","coordinates":[-88.7802095,14.028146]},"properties":{"osm_id":"node/4124608184","category":"mountain","name":"Cerro De La Cruz","elevation_m":438,"website":"","phone":"","access":"","image":""}},{"type":"Feature","geometry":{"type":"Point","coordinates":[-88.9253622,14.0656986]},"properties":{"osm_id":"node/4124608185","category":"mountain","name":"Cerro La Peña","elevation_m":null,"website":"","phone":"","access":"","image":""}},{"type":"Feature","geometry":{"type":"Point","coordinates":[-88.7921221,14.1433871]},"properties":{"osm_id":"node/4124608186","category":"mountain","name":"Cerro De Las Cuevas","elevation_m":736,"website":"","phone":"","access":"","image":""}},{"type":"Feature","geometry":{"type":"Point","coordinates":[-88.9619595,14.1631896]},"properties":{"osm_id":"node/4124608187","category":"mountain","name":"Cerro El Aguacate","elevation_m":666,"website":"","phone":"","access":"","image":""}},{"type":"Feature","geometry":{"type":"Point","coordinates":[-88.9390522,14.0643041]},"properties":{"osm_id":"node/4124608188","category":"mountain","name":"Cerro El Angel","elevation_m":null,"website":"","phone":"","access":"","image":""}},{"type":"Feature","geometry":{"type":"Point","coordinates":[-88.918615,14.1042246]},"properties":{"osm_id":"node/4124608989","category":"mountain","name":"Cerro El Cacao","elevation_m":1176,"website":"","phone":"","access":"","image":""}},{"type":"Feature","geometry":{"type":"Point","coordinates":[-88.8741118,14.1263454]},"properties":{"osm_id":"node/4124608990","category":"mountain","name":"Cerro El Canon","elevation_m":null,"website":"","phone":"","access":"","image":""}},{"type":"Feature","geometry":{"type":"Point","coordinates":[-88.8990336,14.1156683]},"properties":{"osm_id":"node/4124608991","category":"mountain","name":"Cerro El Carrizo","elevation_m":1268,"website":"","phone":"","access":"","image":""}},{"type":"Feature","geometry":{"type":"Point","coordinates":[-88.8645082,14.0529703]},"properties":{"osm_id":"node/4124608992","category":"mountain","name":"Cerro El Cerrón o El Roble","elevation_m":1024,"website":"","phone":"","access":"","image":""}},{"type":"Feature","geometry":{"type":"Point","coordinates":[-88.8340402,14.0082059]},"properties":{"osm_id":"node/4124608993","category":"mountain","name":"Cerro El Cerrón","elevation_m":null,"website":"","phone":"","access":"","image":""}},{"type":"Feature","geometry":{"type":"Point","coordinates":[-88.8982182,14.0718388]},"properties":{"osm_id":"node/4124608994","category":"mountain","name":"Cerro El Cerrón","elevation_m":821,"website":"","phone":"","access":"","image":""}},{"type":"Feature","geometry":{"type":"Point","coordinates":[-88.8933044,14.0445295]},"properties":{"osm_id":"node/4124608995","category":"mountain","name":"Cerro El Chaguiton","elevation_m":834,"website":"","phone":"","access":"","image":""}},{"type":"Feature","geometry":{"type":"Point","coordinates":[-88.9261239,14.1004455]},"properties":{"osm_id":"node/4124608996","category":"mountain","name":"Cerro El Cielo","elevation_m":1350,"website":"","phone":"","access":"","image":""}},{"type":"Feature","geometry":{"type":"Point","coordinates":[-88.9213328,14.0073996]},"properties":{"osm_id":"node/4124608997","category":"mountain","name":"Cerro El Colmenero","elevation_m":515,"website":"","phone":"","access":"","image":""}},{"type":"Feature","geometry":{"type":"Point","coordinates":[-88.8990242,14.1315267]},"properties":{"osm_id":"node/4124608998","category":"mountain","name":"Cerro El Corralito","elevation_m":1350,"website":"","phone":"","access":"","image":""}},{"type":"Feature","geometry":{"type":"Point","coordinates":[-88.9721305,14.1591533]},"properties":{"osm_id":"node/4124608999","category":"mountain","name":"Cerro El Cute","elevation_m":null,"website":"","phone":"","access":"","image":""}},{"type":"Feature","geometry":{"type":"Point","coordinates":[-88.9208883,14.091663]},"properties":{"osm_id":"node/4124609000","category":"mountain","name":"Cerro El Maguey","elevation_m":1132,"website":"","phone":"","access":"","image":""}},{"type":"Feature","geometry":{"type":"Point","coordinates":[-88.9360419,14.0051903]},"properties":{"osm_id":"node/4124609001","category":"mountain","name":"Cerro El Mico","elevation_m":471,"website":"","phone":"","access":"","image":""}},{"type":"Feature","geometry":{"type":"Point","coordinates":[-88.7588653,14.092218]},"properties":{"osm_id":"node/4124609002","category":"mountain","name":"Cerro El Mulo","elevation_m":632,"website":"","phone":"","access":"","image":""}},{"type":"Feature","geometry":{"type":"Point","coordinates":[-88.7506753,14.0578203]},"properties":{"osm_id":"node/4124609003","category":"mountain","name":"Cerro El Patacon","elevation_m":648,"website":"","phone":"","access":"","image":""}},{"type":"Feature","geometry":{"type":"Point","coordinates":[-88.9113086,14.0062823]},"properties":{"osm_id":"node/4124609004","category":"mountain","name":"Cerro El Pedernal","elevation_m":632,"website":"","phone":"","access":"","image":""}},{"type":"Feature","geometry":{"type":"Point","coordinates":[-88.8434368,14.0585904]},"properties":{"osm_id":"node/4124609005","category":"mountain","name":"Cerro El Pino","elevation_m":null,"website":"","phone":"","access":"","image":""}},{"type":"Feature","geometry":{"type":"Point","coordinates":[-88.7746649,14.061109]},"properties":{"osm_id":"node/4124609006","category":"mountain","name":"Cerro El Pintado","elevation_m":null,"website":"","phone":"","access":"","image":""}},{"type":"Feature","geometry":{"type":"Point","coordinates":[-88.8608081,14.1354178]},"properties":{"osm_id":"node/4124609007","category":"mountain","name":"Cerro El Pital","elevation_m":714,"website":"","phone":"","access":"","image":""}},{"type":"Feature","geometry":{"type":"Point","coordinates":[-88.9091951,14.1241188]},"properties":{"osm_id":"node/4124609008","category":"mountain","name":"Cerro El Pito","elevation_m":1436,"website":"","phone":"","access":"","image":""}},{"type":"Feature","geometry":{"type":"Point","coordinates":[-88.8312136,14.0130054]},"properties":{"osm_id":"node/4124609009","category":"mountain","name":"Cerro El Tabanco","elevation_m":null,"website":"","phone":"","access":"","image":""}},{"type":"Feature","geometry":{"type":"Point","coordinates":[-88.8666686,14.0900952]},"properties":{"osm_id":"node/4124609010","category":"mountain","name":"Cerro El Tabanco","elevation_m":null,"website":"","phone":"","access":"","image":""}},{"type":"Feature","geometry":{"type":"Point","coordinates":[-88.885699,14.1539101]},"properties":{"osm_id":"node/4124609011","category":"mountain","name":"Cerro El Tablon","elevation_m":844,"website":"","phone":"","access":"","image":""}},{"type":"Feature","geometry":{"type":"Point","coordinates":[-88.8523349,14.0008668]},"properties":{"osm_id":"node/4124609012","category":"mountain","name":"Cerro El Torro","elevation_m":null,"website":"","phone":"","access":"","image":""}},{"type":"Feature","geometry":{"type":"Point","coordinates":[-88.8996559,14.0481098]},"properties":{"osm_id":"node/4124609013","category":"mountain","name":"Cerro El Tule o Galinero","elevation_m":374,"website":"","phone":"","access":"","image":""}},{"type":"Feature","geometry":{"type":"Point","coordinates":[-88.9067704,14.1414729]},"properties":{"osm_id":"node/4124609014","category":"mountain","name":"Cerro El Volcancillo","elevation_m":1643,"website":"","phone":"","access":"","image":""}},{"type":"Feature","geometry":{"type":"Point","coordinates":[-88.944391,14.0054824]},"properties":{"osm_id":"node/4124609015","category":"mountain","name":"Cerro El Zope","elevation_m":null,"website":"","phone":"","access":"","image":""}},{"type":"Feature","geometry":{"type":"Point","coordinates":[-88.8192003,14.0441756]},"properties":{"osm_id":"node/4124609016","category":"mountain","name":"Cerro Grande o Cerron","elevation_m":null,"website":"","phone":"","access":"","image":""}},{"type":"Feature","geometry":{"type":"Point","coordinates":[-88.9693467,14.0095582]},"properties":{"osm_id":"node/4124609017","category":"mountain","name":"Cerro Grande","elevation_m":null,"website":"","phone":"","access":"","image":""}},{"type":"Feature","geometry":{"type":"Point","coordinates":[-88.7770614,14.0892003]},"properties":{"osm_id":"node/4124609018","category":"mountain","name":"Cerro Grande","elevation_m":null,"website":"","phone":"","access":"","image":""}},{"type":"Feature","geometry":{"type":"Point","coordinates":[-88.9094406,14.0673221]},"properties":{"osm_id":"node/4124609019","category":"mountain","name":"Cerro Guayabillas","elevation_m":656,"website":"","phone":"","access":"","image":""}},{"type":"Feature","geometry":{"type":"Point","coordinates":[-88.9307588,14.0942853]},"properties":{"osm_id":"node/4124609020","category":"mountain","name":"Cerro Infiernitto","elevation_m":1058,"website":"","phone":"","access":"","image":""}},{"type":"Feature","geometry":{"type":"Point","coordinates":[-88.7617769,14.0277451]},"properties":{"osm_id":"node/4124609021","category":"mountain","name":"Cerro Iramon","elevation_m":957,"website":"","phone":"","access":"","image":""}},{"type":"Feature","geometry":{"type":"Point","coordinates":[-88.8100272,14.0661045]},"properties":{"osm_id":"node/4124609022","category":"mountain","name":"Cerro Jocote","elevation_m":500,"website":"","phone":"","access":"","image":""}},{"type":"Feature","geometry":{"type":"Point","coordinates":[-88.88794,14.0533554]},"properties":{"osm_id":"node/4124609023","category":"mountain","name":"Cerro Joya Grande","elevation_m":null,"website":"","phone":"","access":"","image":""}},{"type":"Feature","geometry":{"type":"Point","coordinates":[-88.8199855,14.0196077]},"properties":{"osm_id":"node/4124609024","category":"mountain","name":"Cerro La Angostura","elevation_m":null,"website":"","phone":"","access":"","image":""}},{"type":"Feature","geometry":{"type":"Point","coordinates":[-88.9444715,14.1488022]},"properties":{"osm_id":"node/4124609025","category":"mountain","name":"Cerro La Angostura","elevation_m":842,"website":"","phone":"","access":"","image":""}},{"type":"Feature","geometry":{"type":"Point","coordinates":[-88.8503032,14.0713705]},"properties":{"osm_id":"node/4124609026","category":"mountain","name":"Cerro La Bola","elevation_m":null,"website":"","phone":"","access":"","image":""}},{"type":"Feature","geometry":{"type":"Point","coordinates":[-88.8730484,14.1166776]},"properties":{"osm_id":"node/4124609028","category":"mountain","name":"Cerro La Burrera","elevation_m":1223,"website":"","phone":"","access":"","image":""}},{"type":"Feature","geometry":{"type":"Point","coordinates":[-88.8522062,14.0986696]},"properties":{"osm_id":"node/4124609029","category":"mountain","name":"Cerro La Cuchilla","elevation_m":1009,"website":"","phone":"","access":"","image":""}},{"type":"Feature","geometry":{"type":"Point","coordinates":[-88.88704,14.0138815]},"properties":{"osm_id":"node/4124609030","category":"mountain","name":"Cerro La Cumbre","elevation_m":612,"website":"","phone":"","access":"","image":""}},{"type":"Feature","geometry":{"type":"Point","coordinates":[-88.7561041,14.0614212]},"properties":{"osm_id":"node/4124609031","category":"mountain","name":"Cerro La Laguna o La Labor","elevation_m":null,"website":"","phone":"","access":"","image":""}},{"type":"Feature","geometry":{"type":"Point","coordinates":[-88.9865029,14.001343]},"properties":{"osm_id":"node/4124609032","category":"mountain","name":"Cerro La Pena","elevation_m":null,"website":"","phone":"","access":"","image":""}},{"type":"Feature","geometry":{"type":"Point","coordinates":[-88.7897729,14.0562448]},"properties":{"osm_id":"node/4124609033","category":"mountain","name":"Cerro La Penita","elevation_m":null,"website":"","phone":"","access":"","image":""}},{"type":"Feature","geometry":{"type":"Point","coordinates":[-88.8474279,14.0535115]},"properties":{"osm_id":"node/4124609035","category":"mountain","name":"Cerro La Pinte","elevation_m":null,"website":"","phone":"","access":"","image":""}},{"type":"Feature","geometry":{"type":"Point","coordinates":[-88.8205874,14.0131832]},"properties":{"osm_id":"node/4124609036","category":"mountain","name":"Cerro La Raya","elevation_m":null,"website":"","phone":"","access":"","image":""}},{"type":"Feature","geometry":{"type":"Point","coordinates":[-88.8803011,14.0657819]},"properties":{"osm_id":"node/4124609037","category":"mountain","name":"Cerro Laguna","elevation_m":1146,"website":"","phone":"","access":"","image":""}},{"type":"Feature","geometry":{"type":"Point","coordinates":[-88.8776178,14.0052602]},"properties":{"osm_id":"node/4124609038","category":"mountain","name":"Cerro Las Minas","elevation_m":null,"website":"","phone":"","access":"","image":""}},{"type":"Feature","geometry":{"type":"Point","coordinates":[-88.7598651,14.0881089]},"properties":{"osm_id":"node/4124609039","category":"mountain","name":"Cerro Las Planchas","elevation_m":null,"website":"","phone":"","access":"","image":""}},{"type":"Feature","geometry":{"type":"Point","coordinates":[-88.7450319,14.0779059]},"properties":{"osm_id":"node/4124609040","category":"mountain","name":"Cerro Las Ventanas","elevation_m":null,"website":"","phone":"","access":"","image":""}},{"type":"Feature","geometry":{"type":"Point","coordinates":[-88.7810593,14.0708917]},"properties":{"osm_id":"node/4124609041","category":"mountain","name":"Cerro Liso","elevation_m":705,"website":"","phone":"","access":"","image":""}},{"type":"Feature","geometry":{"type":"Point","coordinates":[-88.963483,14.1140054]},"properties":{"osm_id":"node/4124609042","category":"mountain","name":"Cerro Los Chepes","elevation_m":668,"website":"","phone":"","access":"","image":""}},{"type":"Feature","geometry":{"type":"Point","coordinates":[-88.9469915,14.026429]},"properties":{"osm_id":"node/4124609043","category":"mountain","name":"Cerro Los Coyotes","elevation_m":491,"website":"","phone":"","access":"","image":""}},{"type":"Feature","geometry":{"type":"Point","coordinates":[-88.7916741,14.0778157]},"properties":{"osm_id":"node/4124609044","category":"mountain","name":"Cerro Los Coyotes","elevation_m":580,"website":"","phone":"","access":"","image":""}},{"type":"Feature","geometry":{"type":"Point","coordinates":[-88.8413686,14.0265145]},"properties":{"osm_id":"node/4124609045","category":"mountain","name":"Cerro Los Filos","elevation_m":478,"website":"","phone":"","access":"","image":""}},{"type":"Feature","geometry":{"type":"Point","coordinates":[-88.9969141,14.1134436]},"properties":{"osm_id":"node/4124609046","category":"mountain","name":"Cerro Los Galps","elevation_m":456,"website":"","phone":"","access":"","image":""}},{"type":"Feature","geometry":{"type":"Point","coordinates":[-88.9908201,14.1383517]},"properties":{"osm_id":"node/4124609047","category":"mountain","name":"Cerro Los Gatos","elevation_m":null,"website":"","phone":"","access":"","image":""}},{"type":"Feature","geometry":{"type":"Point","coordinates":[-88.8182562,14.0369731]},"properties":{"osm_id":"node/4124609048","category":"mountain","name":"Cerro Los Hornos","elevation_m":null,"website":"","phone":"","access":"","image":""}},{"type":"Feature","geometry":{"type":"Point","coordinates":[-88.9035732,14.1346479]},"properties":{"osm_id":"node/4124609049","category":"mountain","name":"Cerro Los Picacho","elevation_m":1486,"website":"","phone":"","access":"","image":""}},{"type":"Feature","geometry":{"type":"Point","coordinates":[-88.8849723,14.0121039]},"properties":{"osm_id":"node/4124609050","category":"mountain","name":"Cerro Mesas","elevation_m":null,"website":"","phone":"","access":"","image":""}},{"type":"Feature","geometry":{"type":"Point","coordinates":[-88.9600946,14.0181032]},"properties":{"osm_id":"node/4124609051","category":"mountain","name":"Cerro Mistequillo","elevation_m":null,"website":"","phone":"","access":"","image":""}},{"type":"Feature","geometry":{"type":"Point","coordinates":[-88.7823757,14.0425581]},"properties":{"osm_id":"node/4124609052","category":"mountain","name":"Cerro Mistericuco","elevation_m":419,"website":"","phone":"","access":"","image":""}},{"type":"Feature","geometry":{"type":"Point","coordinates":[-88.9289576,14.1419722]},"properties":{"osm_id":"node/4124609053","category":"mountain","name":"Cerro Ocotalito","elevation_m":1036,"website":"","phone":"","access":"","image":""}},{"type":"Feature","geometry":{"type":"Point","coordinates":[-88.9907167,14.0133927]},"properties":{"osm_id":"node/4124609054","category":"mountain","name":"Cerro Oliva","elevation_m":302,"website":"","phone":"","access":"","image":""}},{"type":"Feature","geometry":{"type":"Point","coordinates":[-88.8867813,14.0739409]},"properties":{"osm_id":"node/4124609055","category":"mountain","name":"Cerro Pandora","elevation_m":374,"website":"","phone":"","access":"","image":""}},{"type":"Feature","geometry":{"type":"Point","coordinates":[-88.7699075,14.0489479]},"properties":{"osm_id":"node/4124609056","category":"mountain","name":"Cerro Pena Blanca o La Sabana","elevation_m":545,"website":"","phone":"","access":"","image":""}},{"type":"Feature","geometry":{"type":"Point","coordinates":[-88.8692687,14.0169922]},"properties":{"osm_id":"node/4124609057","category":"mountain","name":"Cerro Pena del Zacate","elevation_m":null,"website":"","phone":"","access":"","image":""}},{"type":"Feature","geometry":{"type":"Point","coordinates":[-88.8843283,14.0797097]},"properties":{"osm_id":"node/4124609058","category":"mountain","name":"Cerro Picacho","elevation_m":null,"website":"","phone":"","access":"","image":""}},{"type":"Feature","geometry":{"type":"Point","coordinates":[-88.9949614,14.1615251]},"properties":{"osm_id":"node/4124609059","category":"mountain","name":"Cerro Picacho","elevation_m":732,"website":"","phone":"","access":"","image":""}},{"type":"Feature","geometry":{"type":"Point","coordinates":[-88.9453084,14.1372385]},"properties":{"osm_id":"node/4124609060","category":"mountain","name":"Cerro Pilon","elevation_m":738,"website":"","phone":"","access":"","image":""}},{"type":"Feature","geometry":{"type":"Point","coordinates":[-88.8344246,14.0488072]},"properties":{"osm_id":"node/4124609061","category":"mountain","name":"Cerro Pitahaya","elevation_m":802,"website":"","phone":"","access":"","image":""}},{"type":"Feature","geometry":{"type":"Point","coordinates":[-88.8736921,14.1065119]},"properties":{"osm_id":"node/4124609062","category":"mountain","name":"Cerro Queqheshque","elevation_m":956,"website":"","phone":"","access":"","image":""}},{"type":"Feature","geometry":{"type":"Point","coordinates":[-88.8766962,14.0626389]},"properties":{"osm_id":"node/4124609063","category":"mountain","name":"Cerro Talzate","elevation_m":1122,"website":"","phone":"","access":"","image":""}},{"type":"Feature","geometry":{"type":"Point","coordinates":[-88.8047915,14.1118289]},"properties":{"osm_id":"node/4124609064","category":"mountain","name":"Cerro Tecolote","elevation_m":null,"website":"","phone":"","access":"","image":""}},{"type":"Feature","geometry":{"type":"Point","coordinates":[-88.9141827,14.039367]},"properties":{"osm_id":"node/4124609065","category":"mountain","name":"Cerro Tecomate","elevation_m":584,"website":"","phone":"","access":"","image":""}},{"type":"Feature","geometry":{"type":"Point","coordinates":[-88.9148814,14.1590492]},"properties":{"osm_id":"node/4124609066","category":"mountain","name":"Cerro Tepesinte","elevation_m":1292,"website":"","phone":"","access":"","image":""}},{"type":"Feature","geometry":{"type":"Point","coordinates":[-88.8545304,14.0520336]},"properties":{"osm_id":"node/4124609067","category":"mountain","name":"Cerro Tia El Calvario","elevation_m":868,"website":"","phone":"","access":"","image":""}},{"type":"Feature","geometry":{"type":"Point","coordinates":[-88.8892275,14.0590796]},"properties":{"osm_id":"node/4124609068","category":"mountain","name":"Cerro Varillon","elevation_m":970,"website":"","phone":"","access":"","image":""}},{"type":"Feature","geometry":{"type":"Point","coordinates":[-88.8670188,14.1184672]},"properties":{"osm_id":"node/4124609069","category":"mountain","name":"Cerro Vivo","elevation_m":1124,"website":"","phone":"","access":"","image":""}},{"type":"Feature","geometry":{"type":"Point","coordinates":[-88.9794046,14.142867]},"properties":{"osm_id":"node/4124609070","category":"mountain","name":"Cerro Volcancillo Barillas","elevation_m":647,"website":"","phone":"","access":"","image":""}},{"type":"Feature","geometry":{"type":"Point","coordinates":[-88.8019591,14.0601099]},"properties":{"osm_id":"node/4124609071","category":"mountain","name":"Cerro de Chan","elevation_m":500,"website":"","phone":"","access":"","image":""}},{"type":"Feature","geometry":{"type":"Point","coordinates":[-88.9081317,14.0624308]},"properties":{"osm_id":"node/4124609072","category":"mountain","name":"Cerro de Las Penonas","elevation_m":null,"website":"","phone":"","access":"","image":""}},{"type":"Feature","geometry":{"type":"Point","coordinates":[-88.8012295,14.0723487]},"properties":{"osm_id":"node/4124609073","category":"mountain","name":"Cerro de Las Puertas","elevation_m":null,"website":"","phone":"","access":"","image":""}},{"type":"Feature","geometry":{"type":"Point","coordinates":[-88.8599953,14.0789812]},"properties":{"osm_id":"node/4124609074","category":"mountain","name":"Concaste","elevation_m":null,"website":"","phone":"","access":"","image":""}},{"type":"Feature","geometry":{"type":"Point","coordinates":[-88.885487,14.1044343]},"properties":{"osm_id":"node/4124609075","category":"mountain","name":"El Cerro Los Vaditos","elevation_m":898,"website":"","phone":"","access":"","image":""}},{"type":"Feature","geometry":{"type":"Point","coordinates":[-88.8699585,14.0435511]},"properties":{"osm_id":"node/4124609076","category":"mountain","name":"El Roble","elevation_m":688,"website":"","phone":"","access":"","image":""}},{"type":"Feature","geometry":{"type":"Point","coordinates":[-88.9821512,14.1556371]},"properties":{"osm_id":"node/4124609077","category":"mountain","name":"El Tablon","elevation_m":616,"website":"","phone":"","access":"","image":""}},{"type":"Feature","geometry":{"type":"Point","coordinates":[-88.8238459,14.0652303]},"properties":{"osm_id":"node/4124609078","category":"mountain","name":"Llano Verde","elevation_m":383,"website":"","phone":"","access":"","image":""}},{"type":"Feature","geometry":{"type":"Point","coordinates":[-88.7760382,14.108312]},"properties":{"osm_id":"node/4124609079","category":"mountain","name":"Loma Alta","elevation_m":null,"website":"","phone":"","access":"","image":""}},{"type":"Feature","geometry":{"type":"Point","coordinates":[-88.9588791,14.0740866]},"properties":{"osm_id":"node/4124609080","category":"mountain","name":"Loma Amatillo","elevation_m":474,"website":"","phone":"","access":"","image":""}},{"type":"Feature","geometry":{"type":"Point","coordinates":[-88.9429038,14.0966162]},"properties":{"osm_id":"node/4124609081","category":"mountain","name":"Loma Cacanaguansal","elevation_m":null,"website":"","phone":"","access":"","image":""}},{"type":"Feature","geometry":{"type":"Point","coordinates":[-88.9362949,14.0971989]},"properties":{"osm_id":"node/4124609082","category":"mountain","name":"Loma Campanario","elevation_m":null,"website":"","phone":"","access":"","image":""}},{"type":"Feature","geometry":{"type":"Point","coordinates":[-88.823288,14.0564048]},"properties":{"osm_id":"node/4124609083","category":"mountain","name":"Loma Colorada","elevation_m":null,"website":"","phone":"","access":"","image":""}},{"type":"Feature","geometry":{"type":"Point","coordinates":[-88.7730342,14.0674782]},"properties":{"osm_id":"node/4124609084","category":"mountain","name":"Loma El Barril","elevation_m":null,"website":"","phone":"","access":"","image":""}},{"type":"Feature","geometry":{"type":"Point","coordinates":[-88.9482361,14.0470899]},"properties":{"osm_id":"node/4124609085","category":"mountain","name":"Loma El Barrio","elevation_m":448,"website":"","phone":"","access":"","image":""}},{"type":"Feature","geometry":{"type":"Point","coordinates":[-88.9276928,14.0184206]},"properties":{"osm_id":"node/4124609086","category":"mountain","name":"Loma El Cordoncillo","elevation_m":471,"website":"","phone":"","access":"","image":""}},{"type":"Feature","geometry":{"type":"Point","coordinates":[-88.921371,14.0621602]},"properties":{"osm_id":"node/4124609087","category":"mountain","name":"Loma El Cordoncillo","elevation_m":null,"website":"","phone":"","access":"","image":""}},{"type":"Feature","geometry":{"type":"Point","coordinates":[-88.9223797,14.0027778]},"properties":{"osm_id":"node/4124609088","category":"mountain","name":"Loma El Espino","elevation_m":null,"website":"","phone":"","access":"","image":""}},{"type":"Feature","geometry":{"type":"Point","coordinates":[-88.9217036,14.0852528]},"properties":{"osm_id":"node/4124609289","category":"mountain","name":"Loma El Estobillal","elevation_m":1016,"website":"","phone":"","access":"","image":""}},{"type":"Feature","geometry":{"type":"Point","coordinates":[-88.8253509,14.0099835]},"properties":{"osm_id":"node/4124609290","category":"mountain","name":"Loma El Gallo","elevation_m":null,"website":"","phone":"","access":"","image":""}},{"type":"Feature","geometry":{"type":"Point","coordinates":[-88.9122301,14.0273554]},"properties":{"osm_id":"node/4124609291","category":"mountain","name":"Loma El Irayo","elevation_m":568,"website":"","phone":"","access":"","image":""}},{"type":"Feature","geometry":{"type":"Point","coordinates":[-88.9740925,14.0229837]},"properties":{"osm_id":"node/4124609292","category":"mountain","name":"Loma El Muerto","elevation_m":333,"website":"","phone":"","access":"","image":""}},{"type":"Feature","geometry":{"type":"Point","coordinates":[-88.9235919,14.078343]},"properties":{"osm_id":"node/4124609293","category":"mountain","name":"Loma El Nance","elevation_m":992,"website":"","phone":"","access":"","image":""}},{"type":"Feature","geometry":{"type":"Point","coordinates":[-88.937412,14.1214344]},"properties":{"osm_id":"node/4124609294","category":"mountain","name":"Loma El Robla","elevation_m":995,"website":"","phone":"","access":"","image":""}},{"type":"Feature","geometry":{"type":"Point","coordinates":[-88.9207702,14.0262105]},"properties":{"osm_id":"node/4124609295","category":"mountain","name":"Loma El Tasajo","elevation_m":null,"website":"","phone":"","access":"","image":""}},{"type":"Feature","geometry":{"type":"Point","coordinates":[-88.9464848,14.0175953]},"properties":{"osm_id":"node/4124609296","category":"mountain","name":"Loma El Zopilote","elevation_m":null,"website":"","phone":"","access":"","image":""}},{"type":"Feature","geometry":{"type":"Point","coordinates":[-88.9445883,14.0767091]},"properties":{"osm_id":"node/4124609297","category":"mountain","name":"Loma Eramin","elevation_m":610,"website":"","phone":"","access":"","image":""}},{"type":"Feature","geometry":{"type":"Point","coordinates":[-88.9190965,14.0535844]},"properties":{"osm_id":"node/4124609298","category":"mountain","name":"Loma Guatolo","elevation_m":816,"website":"","phone":"","access":"","image":""}},{"type":"Feature","geometry":{"type":"Point","coordinates":[-88.9253193,14.0514404]},"properties":{"osm_id":"node/4124609299","category":"mountain","name":"Loma La Chacara","elevation_m":692,"website":"","phone":"","access":"","image":""}},{"type":"Feature","geometry":{"type":"Point","coordinates":[-88.7671333,14.0676656]},"properties":{"osm_id":"node/4124609300","category":"mountain","name":"Loma La Cueva Del Leon","elevation_m":512,"website":"","phone":"","access":"","image":""}},{"type":"Feature","geometry":{"type":"Point","coordinates":[-88.919633,14.0522938]},"properties":{"osm_id":"node/4124609301","category":"mountain","name":"Loma Larga","elevation_m":816,"website":"","phone":"","access":"","image":""}},{"type":"Feature","geometry":{"type":"Point","coordinates":[-88.9333444,14.0624308]},"properties":{"osm_id":"node/4124609302","category":"mountain","name":"Loma Larga","elevation_m":null,"website":"","phone":"","access":"","image":""}},{"type":"Feature","geometry":{"type":"Point","coordinates":[-88.8952356,14.0232543]},"properties":{"osm_id":"node/4124609303","category":"mountain","name":"Loma Las Campanas","elevation_m":534,"website":"","phone":"","access":"","image":""}},{"type":"Feature","geometry":{"type":"Point","coordinates":[-88.9494806,14.037202]},"properties":{"osm_id":"node/4124609304","category":"mountain","name":"Loma Las Campanas","elevation_m":319,"website":"","phone":"","access":"","image":""}},{"type":"Feature","geometry":{"type":"Point","coordinates":[-88.7545484,14.1060228]},"properties":{"osm_id":"node/4124609305","category":"mountain","name":"Loma Las Crucitas","elevation_m":516,"website":"","phone":"","access":"","image":""}},{"type":"Feature","geometry":{"type":"Point","coordinates":[-88.9297604,14.0073235]},"properties":{"osm_id":"node/4124609306","category":"mountain","name":"Loma Los Horcones","elevation_m":536,"website":"","phone":"","access":"","image":""}},{"type":"Feature","geometry":{"type":"Point","coordinates":[-88.9466053,14.0631801]},"properties":{"osm_id":"node/4124609307","category":"mountain","name":"Loma Los Planes","elevation_m":null,"website":"","phone":"","access":"","image":""}},{"type":"Feature","geometry":{"type":"Point","coordinates":[-88.9306503,14.0193855]},"properties":{"osm_id":"node/4124609308","category":"mountain","name":"Loma Los Tecomates","elevation_m":null,"website":"","phone":"","access":"","image":""}},{"type":"Feature","geometry":{"type":"Point","coordinates":[-88.8764963,14.0983782]},"properties":{"osm_id":"node/4124609309","category":"mountain","name":"Loma Montanita","elevation_m":null,"website":"","phone":"","access":"","image":""}},{"type":"Feature","geometry":{"type":"Point","coordinates":[-88.8839489,14.0520128]},"properties":{"osm_id":"node/4124609310","category":"mountain","name":"Loma Redonda","elevation_m":null,"website":"","phone":"","access":"","image":""}},{"type":"Feature","geometry":{"type":"Point","coordinates":[-88.9206629,14.0384511]},"properties":{"osm_id":"node/4124609311","category":"mountain","name":"Loma Sisimite","elevation_m":null,"website":"","phone":"","access":"","image":""}},{"type":"Feature","geometry":{"type":"Point","coordinates":[-88.9656227,14.0620088]},"properties":{"osm_id":"node/4124609312","category":"mountain","name":"Loma Tecomate","elevation_m":371,"website":"","phone":"","access":"","image":""}},{"type":"Feature","geometry":{"type":"Point","coordinates":[-88.9708155,14.0676703]},"properties":{"osm_id":"node/4124609313","category":"mountain","name":"Loma Tecomate","elevation_m":374,"website":"","phone":"","access":"","image":""}},{"type":"Feature","geometry":{"type":"Point","coordinates":[-88.9436132,14.1056397]},"properties":{"osm_id":"node/4124609314","category":"mountain","name":"Loma Zacamil","elevation_m":708,"website":"","phone":"","access":"","image":""}},{"type":"Feature","geometry":{"type":"Point","coordinates":[-88.9545875,14.0656362]},"properties":{"osm_id":"node/4124609315","category":"mountain","name":"Loma de los Coyotes","elevation_m":452,"website":"","phone":"","access":"","image":""}},{"type":"Feature","geometry":{"type":"Point","coordinates":[-88.9410692,14.0221301]},"properties":{"osm_id":"node/4124609316","category":"mountain","name":"Loma el Bonetillo","elevation_m":477,"website":"","phone":"","access":"","image":""}},{"type":"Feature","geometry":{"type":"Point","coordinates":[-88.7631139,14.0914896]},"properties":{"osm_id":"node/4124609317","category":"mountain","name":"Lomas de Arcatao","elevation_m":659,"website":"","phone":"","access":"","image":""}},{"type":"Feature","geometry":{"type":"Point","coordinates":[-88.9851433,14.0230982]},"properties":{"osm_id":"node/4124609318","category":"mountain","name":"Los Amates","elevation_m":283,"website":"","phone":"","access":"","image":""}},{"type":"Feature","geometry":{"type":"Point","coordinates":[-88.8871578,14.0096661]},"properties":{"osm_id":"node/4124609319","category":"mountain","name":"Los Ranchos","elevation_m":718,"website":"","phone":"","access":"","image":""}},{"type":"Feature","geometry":{"type":"Point","coordinates":[-88.9793127,14.0697101]},"properties":{"osm_id":"node/4124609320","category":"mountain","name":"Monte Redondo","elevation_m":352,"website":"","phone":"","access":"","image":""}},{"type":"Feature","geometry":{"type":"Point","coordinates":[-88.7810404,14.016916]},"properties":{"osm_id":"node/4124609321","category":"mountain","name":"Ouijunia","elevation_m":343,"website":"","phone":"","access":"","image":""}},{"type":"Feature","geometry":{"type":"Point","coordinates":[-88.9229589,14.0727338]},"properties":{"osm_id":"node/4124609322","category":"mountain","name":"Penas del Norte","elevation_m":1070,"website":"","phone":"","access":"","image":""}},{"type":"Feature","geometry":{"type":"Point","coordinates":[-88.8048576,13.9958639]},"properties":{"osm_id":"node/4124609323","category":"mountain","name":"Pico Blanco","elevation_m":null,"website":"","phone":"","access":"","image":""}},{"type":"Feature","geometry":{"type":"Point","coordinates":[-88.8856587,14.0837682]},"properties":{"osm_id":"node/4124609324","category":"mountain","name":"Plan del Picacho","elevation_m":1009,"website":"","phone":"","access":"","image":""}},{"type":"Feature","geometry":{"type":"Point","coordinates":[-88.9299175,14.0031079]},"properties":{"osm_id":"node/4124609325","category":"mountain","name":"San Miguel de Mercedes","elevation_m":591,"website":"","phone":"","access":"","image":""}},{"type":"Feature","geometry":{"type":"Point","coordinates":[-88.8011411,14.0187443]},"properties":{"osm_id":"node/4124609326","category":"mountain","name":"Sihuapate","elevation_m":274,"website":"","phone":"","access":"","image":""}},{"type":"Feature","geometry":{"type":"Point","coordinates":[-88.9348036,14.066219]},"properties":{"osm_id":"node/4124609327","category":"mountain","name":"Sitio Los Nunez","elevation_m":896,"website":"","phone":"","access":"","image":""}},{"type":"Feature","geometry":{"type":"Point","coordinates":[-88.9082604,14.0312275]},"properties":{"osm_id":"node/4124609328","category":"mountain","name":"Tamulasco","elevation_m":606,"website":"","phone":"","access":"","image":""}},{"type":"Feature","geometry":{"type":"Point","coordinates":[-88.9558546,14.0021048]},"properties":{"osm_id":"node/4124609334","category":"mountain","name":"Sin nombre","elevation_m":59,"website":"","phone":"","access":"","image":""}},{"type":"Feature","geometry":{"type":"Point","coordinates":[-88.7539834,14.0049423]},"properties":{"osm_id":"node/4124609336","category":"mountain","name":"Sin nombre","elevation_m":266,"website":"","phone":"","access":"","image":""}},{"type":"Feature","geometry":{"type":"Point","coordinates":[-88.7588706,14.0072501]},"properties":{"osm_id":"node/4124609337","category":"mountain","name":"Sin nombre","elevation_m":376,"website":"","phone":"","access":"","image":""}},{"type":"Feature","geometry":{"type":"Point","coordinates":[-88.8846844,14.0081424]},"properties":{"osm_id":"node/4124609338","category":"mountain","name":"Sin nombre","elevation_m":718,"website":"","phone":"","access":"","image":""}},{"type":"Feature","geometry":{"type":"Point","coordinates":[-88.9535776,14.0094693]},"properties":{"osm_id":"node/4124609339","category":"mountain","name":"Sin nombre","elevation_m":408,"website":"","phone":"","access":"","image":""}},{"type":"Feature","geometry":{"type":"Point","coordinates":[-88.8603961,14.0121166]},"properties":{"osm_id":"node/4124609340","category":"mountain","name":"Sin nombre","elevation_m":422,"website":"","phone":"","access":"","image":""}},{"type":"Feature","geometry":{"type":"Point","coordinates":[-88.9062508,14.0122309]},"properties":{"osm_id":"node/4124609341","category":"mountain","name":"Sin nombre","elevation_m":639,"website":"","phone":"","access":"","image":""}},{"type":"Feature","geometry":{"type":"Point","coordinates":[-88.9170928,14.0147893]},"properties":{"osm_id":"node/4124609342","category":"mountain","name":"Sin nombre","elevation_m":548,"website":"","phone":"","access":"","image":""}},{"type":"Feature","geometry":{"type":"Point","coordinates":[-88.7778212,14.022274]},"properties":{"osm_id":"node/4124609343","category":"mountain","name":"Sin nombre","elevation_m":294,"website":"","phone":"","access":"","image":""}},{"type":"Feature","geometry":{"type":"Point","coordinates":[-88.7648853,14.0349383]},"properties":{"osm_id":"node/4124609426","category":"mountain","name":"Sin nombre","elevation_m":906,"website":"","phone":"","access":"","image":""}},{"type":"Feature","geometry":{"type":"Point","coordinates":[-88.8798719,14.0354742]},"properties":{"osm_id":"node/4124609429","category":"mountain","name":"Sin nombre","elevation_m":537,"website":"","phone":"","access":"","image":""}},{"type":"Feature","geometry":{"type":"Point","coordinates":[-88.837096,14.0368482]},"properties":{"osm_id":"node/4124609432","category":"mountain","name":"Sin nombre","elevation_m":336,"website":"","phone":"","access":"","image":""}},{"type":"Feature","geometry":{"type":"Point","coordinates":[-88.8005322,14.0415111]},"properties":{"osm_id":"node/4124609433","category":"mountain","name":"Sin nombre","elevation_m":352,"website":"","phone":"","access":"","image":""}},{"type":"Feature","geometry":{"type":"Point","coordinates":[-88.8469988,14.0440923]},"properties":{"osm_id":"node/4124609434","category":"mountain","name":"Sin nombre","elevation_m":546,"website":"","phone":"","access":"","image":""}},{"type":"Feature","geometry":{"type":"Point","coordinates":[-88.9576131,14.0457889]},"properties":{"osm_id":"node/4124609435","category":"mountain","name":"Sin nombre","elevation_m":368,"website":"","phone":"","access":"","image":""}},{"type":"Feature","geometry":{"type":"Point","coordinates":[-88.8610535,14.0463301]},"properties":{"osm_id":"node/4124609436","category":"mountain","name":"Sin nombre","elevation_m":762,"website":"","phone":"","access":"","image":""}},{"type":"Feature","geometry":{"type":"Point","coordinates":[-88.9808088,14.0483909]},"properties":{"osm_id":"node/4124609437","category":"mountain","name":"Sin nombre","elevation_m":304,"website":"","phone":"","access":"","image":""}},{"type":"Feature","geometry":{"type":"Point","coordinates":[-88.9897781,14.0640127]},"properties":{"osm_id":"node/4124609438","category":"mountain","name":"Sin nombre","elevation_m":321,"website":"","phone":"","access":"","image":""}},{"type":"Feature","geometry":{"type":"Point","coordinates":[-88.9252763,14.070413]},"properties":{"osm_id":"node/4124609439","category":"mountain","name":"Sin nombre","elevation_m":962,"website":"","phone":"","access":"","image":""}},{"type":"Feature","geometry":{"type":"Point","coordinates":[-88.9123481,14.0797999]},"properties":{"osm_id":"node/4124609440","category":"mountain","name":"Sin nombre","elevation_m":664,"website":"","phone":"","access":"","image":""}},{"type":"Feature","geometry":{"type":"Point","coordinates":[-88.9033788,14.0835462]},"properties":{"osm_id":"node/4124609441","category":"mountain","name":"Sin nombre","elevation_m":635,"website":"","phone":"","access":"","image":""}},{"type":"Feature","geometry":{"type":"Point","coordinates":[-88.7662682,14.0854124]},"properties":{"osm_id":"node/4124609442","category":"mountain","name":"Sin nombre","elevation_m":486,"website":"","phone":"","access":"","image":""}},{"type":"Feature","geometry":{"type":"Point","coordinates":[-88.9815705,14.0857107]},"properties":{"osm_id":"node/4124609443","category":"mountain","name":"Sin nombre","elevation_m":412,"website":"","phone":"","access":"","image":""}},{"type":"Feature","geometry":{"type":"Point","coordinates":[-88.7920389,14.0945281]},"properties":{"osm_id":"node/4124609444","category":"mountain","name":"Sin nombre","elevation_m":392,"website":"","phone":"","access":"","image":""}},{"type":"Feature","geometry":{"type":"Point","coordinates":[-88.864437,14.0946114]},"properties":{"osm_id":"node/4124609445","category":"mountain","name":"Sin nombre","elevation_m":584,"website":"","phone":"","access":"","image":""}},{"type":"Feature","geometry":{"type":"Point","coordinates":[-88.8375935,14.1031232]},"properties":{"osm_id":"node/4124609446","category":"mountain","name":"Sin nombre","elevation_m":312,"website":"","phone":"","access":"","image":""}},{"type":"Feature","geometry":{"type":"Point","coordinates":[-88.8443097,14.1076599]},"properties":{"osm_id":"node/4124609447","category":"mountain","name":"Sin nombre","elevation_m":512,"website":"","phone":"","access":"","image":""}},{"type":"Feature","geometry":{"type":"Point","coordinates":[-88.8593798,14.1088947]},"properties":{"osm_id":"node/4124609448","category":"mountain","name":"Sin nombre","elevation_m":728,"website":"","phone":"","access":"","image":""}},{"type":"Feature","geometry":{"type":"Point","coordinates":[-88.9804346,14.1134644]},"properties":{"osm_id":"node/4124609449","category":"mountain","name":"Sin nombre","elevation_m":494,"website":"","phone":"","access":"","image":""}},{"type":"Feature","geometry":{"type":"Point","coordinates":[-88.796069,14.1233158]},"properties":{"osm_id":"node/4124609451","category":"mountain","name":"Sin nombre","elevation_m":null,"website":"","phone":"","access":"","image":""}},{"type":"Feature","geometry":{"type":"Point","coordinates":[-88.7707382,14.1236488]},"properties":{"osm_id":"node/4124609452","category":"mountain","name":"Sin nombre","elevation_m":414,"website":"","phone":"","access":"","image":""}},{"type":"Feature","geometry":{"type":"Point","coordinates":[-88.9863998,14.1253465]},"properties":{"osm_id":"node/4124609453","category":"mountain","name":"Sin nombre","elevation_m":464,"website":"","phone":"","access":"","image":""}},{"type":"Feature","geometry":{"type":"Point","coordinates":[-88.890763,14.1278228]},"properties":{"osm_id":"node/4124609456","category":"mountain","name":"Sin nombre","elevation_m":1222,"website":"","phone":"","access":"","image":""}},{"type":"Feature","geometry":{"type":"Point","coordinates":[-88.956005,14.1313602]},"properties":{"osm_id":"node/4124609458","category":"mountain","name":"Sin nombre","elevation_m":578,"website":"","phone":"","access":"","image":""}},{"type":"Feature","geometry":{"type":"Point","coordinates":[-88.9187652,14.1322758]},"properties":{"osm_id":"node/4124609459","category":"mountain","name":"Sin nombre","elevation_m":1372,"website":"","phone":"","access":"","image":""}},{"type":"Feature","geometry":{"type":"Point","coordinates":[-88.9777309,14.1327336]},"properties":{"osm_id":"node/4124609460","category":"mountain","name":"Sin nombre","elevation_m":540,"website":"","phone":"","access":"","image":""}},{"type":"Feature","geometry":{"type":"Point","coordinates":[-88.7730033,14.1371033]},"properties":{"osm_id":"node/4124609461","category":"mountain","name":"Sin nombre","elevation_m":616,"website":"","phone":"","access":"","image":""}},{"type":"Feature","geometry":{"type":"Point","coordinates":[-88.9726025,14.1374362]},"properties":{"osm_id":"node/4124609462","category":"mountain","name":"Sin nombre","elevation_m":528,"website":"","phone":"","access":"","image":""}},{"type":"Feature","geometry":{"type":"Point","coordinates":[-88.8653786,14.1412024]},"properties":{"osm_id":"node/4124609466","category":"mountain","name":"Sin nombre","elevation_m":584,"website":"","phone":"","access":"","image":""}},{"type":"Feature","geometry":{"type":"Point","coordinates":[-88.957904,14.1414521]},"properties":{"osm_id":"node/4124609467","category":"mountain","name":"Sin nombre","elevation_m":532,"website":"","phone":"","access":"","image":""}},{"type":"Feature","geometry":{"type":"Point","coordinates":[-88.9202887,14.1474861]},"properties":{"osm_id":"node/4124609470","category":"mountain","name":"Sin nombre","elevation_m":1388,"website":"","phone":"","access":"","image":""}},{"type":"Feature","geometry":{"type":"Point","coordinates":[-88.8655288,14.1491091]},"properties":{"osm_id":"node/4124609471","category":"mountain","name":"Sin nombre","elevation_m":588,"website":"","phone":"","access":"","image":""}},{"type":"Feature","geometry":{"type":"Point","coordinates":[-88.9486129,14.1497437]},"properties":{"osm_id":"node/4124609472","category":"mountain","name":"Sin nombre","elevation_m":792,"website":"","phone":"","access":"","image":""}},{"type":"Feature","geometry":{"type":"Point","coordinates":[-88.9112551,14.1500454]},"properties":{"osm_id":"node/4124609474","category":"mountain","name":"Sin nombre","elevation_m":1322,"website":"","phone":"","access":"","image":""}},{"type":"Feature","geometry":{"type":"Point","coordinates":[-88.7837455,14.1526436]},"properties":{"osm_id":"node/4124609475","category":"mountain","name":"Sin nombre","elevation_m":576,"website":"","phone":"","access":"","image":""}},{"type":"Feature","geometry":{"type":"Point","coordinates":[-88.9041955,14.1536189]},"properties":{"osm_id":"node/4124609477","category":"mountain","name":"Sin nombre","elevation_m":1308,"website":"","phone":"","access":"","image":""}},{"type":"Feature","geometry":{"type":"Point","coordinates":[-88.9260609,14.1546384]},"properties":{"osm_id":"node/4124609478","category":"mountain","name":"Sin nombre","elevation_m":1112,"website":"","phone":"","access":"","image":""}},{"type":"Feature","geometry":{"type":"Point","coordinates":[-88.9682252,14.1555122]},"properties":{"osm_id":"node/4124609480","category":"mountain","name":"Sin nombre","elevation_m":576,"website":"","phone":"","access":"","image":""}},{"type":"Feature","geometry":{"type":"Point","coordinates":[-88.8891107,14.1600063]},"properties":{"osm_id":"node/4124609484","category":"mountain","name":"Sin nombre","elevation_m":904,"website":"","phone":"","access":"","image":""}},{"type":"Feature","geometry":{"type":"Point","coordinates":[-88.9068992,14.1634184]},"properties":{"osm_id":"node/4124609487","category":"mountain","name":"Sin nombre","elevation_m":1208,"website":"","phone":"","access":"","image":""}},{"type":"Feature","geometry":{"type":"Point","coordinates":[-88.9287431,14.1658734]},"properties":{"osm_id":"node/4124609489","category":"mountain","name":"Sin nombre","elevation_m":944,"website":"","phone":"","access":"","image":""}},{"type":"Feature","geometry":{"type":"Point","coordinates":[-88.9100749,14.1665392]},"properties":{"osm_id":"node/4124609490","category":"mountain","name":"Sin nombre","elevation_m":1184,"website":"","phone":"","access":"","image":""}},{"type":"Feature","geometry":{"type":"Point","coordinates":[-87.7667908,13.229377]},"properties":{"osm_id":"node/4131761532","category":"mountain","name":"Cerro El Havillal","elevation_m":505,"website":"","phone":"","access":"","image":""}},{"type":"Feature","geometry":{"type":"Point","coordinates":[-87.7697862,13.2323359]},"properties":{"osm_id":"node/4131761533","category":"mountain","name":"Cerro Guatolón","elevation_m":415,"website":"","phone":"","access":"","image":""}},{"type":"Feature","geometry":{"type":"Point","coordinates":[-87.7603276,13.2953333]},"properties":{"osm_id":"node/4156481990","category":"mountain","name":"Cerro Vividores","elevation_m":165,"website":"","phone":"","access":"","image":""}},{"type":"Feature","geometry":{"type":"Point","coordinates":[-87.7491954,13.3132436]},"properties":{"osm_id":"node/4156481991","category":"mountain","name":"Cerro El Cáguamo","elevation_m":93,"website":"","phone":"","access":"","image":""}},{"type":"Feature","geometry":{"type":"Point","coordinates":[-89.6640028,13.8851941]},"properties":{"osm_id":"node/4238545020","category":"mountain","name":"Cerro La Cumbre, La Ruda o Los Ángeles","elevation_m":1850,"website":"","phone":"","access":"","image":""}},{"type":"Feature","geometry":{"type":"Point","coordinates":[-89.6497552,13.8597932]},"properties":{"osm_id":"node/4238545021","category":"mountain","name":"Montaña El Pajuil","elevation_m":null,"website":"","phone":"","access":"","image":""}},{"type":"Feature","geometry":{"type":"Point","coordinates":[-89.5270956,14.2068139]},"properties":{"osm_id":"node/4242321424","category":"mountain","name":"Cerro Los Horcones","elevation_m":595,"website":"","phone":"","access":"","image":""}},{"type":"Feature","geometry":{"type":"Point","coordinates":[-89.5206151,14.1991346]},"properties":{"osm_id":"node/4242321425","category":"mountain","name":"Cerro Conyuca","elevation_m":554,"website":"","phone":"","access":"","image":""}},{"type":"Feature","geometry":{"type":"Point","coordinates":[-89.5229506,14.1960208]},"properties":{"osm_id":"node/4242321426","category":"mountain","name":"Cerro Orégano","elevation_m":505,"website":"","phone":"","access":"","image":""}},{"type":"Feature","geometry":{"type":"Point","coordinates":[-89.5420579,14.1984519]},"properties":{"osm_id":"node/4242321427","category":"mountain","name":"Cerro El Tigre","elevation_m":631,"website":"","phone":"","access":"","image":""}},{"type":"Feature","geometry":{"type":"Point","coordinates":[-89.5431284,14.2146565]},"properties":{"osm_id":"node/4242321428","category":"mountain","name":"Montaña El Chaparrón","elevation_m":null,"website":"","phone":"","access":"","image":""}},{"type":"Feature","geometry":{"type":"Point","coordinates":[-89.5541954,14.2032163]},"properties":{"osm_id":"node/4242321429","category":"mountain","name":"Cerro Caulotal","elevation_m":535,"website":"","phone":"","access":"","image":""}},{"type":"Feature","geometry":{"type":"Point","coordinates":[-89.5652461,14.2032163]},"properties":{"osm_id":"node/4242321430","category":"mountain","name":"Cerro El Caulotal","elevation_m":615,"website":"","phone":"","access":"","image":""}},{"type":"Feature","geometry":{"type":"Point","coordinates":[-89.5675683,14.1855997]},"properties":{"osm_id":"node/4242321431","category":"mountain","name":"Cerro La Cañada","elevation_m":722,"website":"","phone":"","access":"","image":""}},{"type":"Feature","geometry":{"type":"Point","coordinates":[-89.5704865,14.1578047]},"properties":{"osm_id":"node/4242321432","category":"mountain","name":"Cerro El Borroñoso","elevation_m":645,"website":"","phone":"","access":"","image":""}},{"type":"Feature","geometry":{"type":"Point","coordinates":[-89.5661306,14.1730133]},"properties":{"osm_id":"node/4242321433","category":"mountain","name":"Cerro El Pinalito","elevation_m":871,"website":"","phone":"","access":"","image":""}},{"type":"Feature","geometry":{"type":"Point","coordinates":[-89.556204,14.172566]},"properties":{"osm_id":"node/4242321434","category":"mountain","name":"Cerro Picudo","elevation_m":645,"website":"","phone":"","access":"","image":""}},{"type":"Feature","geometry":{"type":"Point","coordinates":[-89.5376387,14.1711222]},"properties":{"osm_id":"node/4242335760","category":"mountain","name":"Cerro La Cuchara","elevation_m":707,"website":"","phone":"","access":"","image":""}},{"type":"Feature","geometry":{"type":"Point","coordinates":[-89.5474492,14.1741899]},"properties":{"osm_id":"node/4242335761","category":"mountain","name":"Cerro El Nanzal","elevation_m":675,"website":"","phone":"","access":"","image":""}},{"type":"Feature","geometry":{"type":"Point","coordinates":[-89.5468766,14.1676284]},"properties":{"osm_id":"node/4242335762","category":"mountain","name":"Cerro Las Marías","elevation_m":655,"website":"","phone":"","access":"","image":""}},{"type":"Feature","geometry":{"type":"Point","coordinates":[-89.5599047,14.1779302]},"properties":{"osm_id":"node/4242335763","category":"mountain","name":"Cerro Lechuza","elevation_m":515,"website":"","phone":"","access":"","image":""}},{"type":"Feature","geometry":{"type":"Point","coordinates":[-89.5543563,14.1638113]},"properties":{"osm_id":"node/4242335764","category":"mountain","name":"Cerro La Tejera","elevation_m":515,"website":"","phone":"","access":"","image":""}},{"type":"Feature","geometry":{"type":"Point","coordinates":[-89.5562375,14.1543607]},"properties":{"osm_id":"node/4242335765","category":"mountain","name":"Cerro Colorado","elevation_m":691,"website":"","phone":"","access":"","image":""}},{"type":"Feature","geometry":{"type":"Point","coordinates":[-89.5262317,14.1783466]},"properties":{"osm_id":"node/4242335766","category":"mountain","name":"Cerro Minitas","elevation_m":537,"website":"","phone":"","access":"","image":""}},{"type":"Feature","geometry":{"type":"Point","coordinates":[-89.5427103,14.1636711]},"properties":{"osm_id":"node/4242335767","category":"mountain","name":"Cerro El Morro","elevation_m":565,"website":"","phone":"","access":"","image":""}},{"type":"Feature","geometry":{"type":"Point","coordinates":[-89.5040919,14.2349053]},"properties":{"osm_id":"node/4242338201","category":"mountain","name":"Cerro Sincuyal","elevation_m":495,"website":"","phone":"","access":"","image":""}},{"type":"Feature","geometry":{"type":"Point","coordinates":[-89.5107866,14.2291647]},"properties":{"osm_id":"node/4242338202","category":"mountain","name":"Cerro Calcinapa","elevation_m":593,"website":"","phone":"","access":"","image":""}},{"type":"Feature","geometry":{"type":"Point","coordinates":[-89.4843947,14.2450952]},"properties":{"osm_id":"node/4243776217","category":"mountain","name":"Cerro Igualtepeque","elevation_m":452,"website":"","phone":"","access":"","image":""}},{"type":"Feature","geometry":{"type":"Point","coordinates":[-89.5186591,14.2503576]},"properties":{"osm_id":"node/4247759679","category":"mountain","name":"Sin nombre","elevation_m":442,"website":"","phone":"","access":"","image":""}},{"type":"Feature","geometry":{"type":"Point","coordinates":[-89.3869468,13.8222389]},"properties":{"osm_id":"node/4255697981","category":"mountain","name":"Loma Santiago","elevation_m":688,"website":"","phone":"","access":"","image":""}},{"type":"Feature","geometry":{"type":"Point","coordinates":[-89.1709473,13.6680988]},"properties":{"osm_id":"node/4261863074","category":"mountain","name":"Cerro de San Jacinto","elevation_m":1153,"website":"","phone":"","access":"","image":""}},{"type":"Feature","geometry":{"type":"Point","coordinates":[-89.075737,14.0460331]},"properties":{"osm_id":"node/4318663466","category":"mountain","name":"Cerro La Florida","elevation_m":282,"website":"","phone":"","access":"","image":""}},{"type":"Feature","geometry":{"type":"Point","coordinates":[-89.1347701,14.0408561]},"properties":{"osm_id":"node/4318691381","category":"mountain","name":"Cerro de Colima","elevation_m":424,"website":"","phone":"","access":"","image":""}},{"type":"Feature","geometry":{"type":"Point","coordinates":[-89.1076318,13.9080103]},"properties":{"osm_id":"node/4318767420","category":"mountain","name":"Cerro Los Ganchos","elevation_m":1170,"website":"","phone":"","access":"","image":""}},{"type":"Feature","geometry":{"type":"Point","coordinates":[-89.1136284,13.9022277]},"properties":{"osm_id":"node/4318767421","category":"mountain","name":"Cerro Guazapa 1420.24","elevation_m":null,"website":"","phone":"","access":"","image":""}},{"type":"Feature","geometry":{"type":"Point","coordinates":[-89.1078078,13.8902976]},"properties":{"osm_id":"node/4318767422","category":"mountain","name":"Cerro El Campanario","elevation_m":1200,"website":"","phone":"","access":"","image":""}},{"type":"Feature","geometry":{"type":"Point","coordinates":[-89.1129306,13.8828233]},"properties":{"osm_id":"node/4318767423","category":"mountain","name":"Cerro Los Lirios","elevation_m":1463,"website":"","phone":"","access":"","image":""}},{"type":"Feature","geometry":{"type":"Point","coordinates":[-89.0919926,13.9039962]},"properties":{"osm_id":"node/4318767424","category":"mountain","name":"Cerro Peña Colorada","elevation_m":1144,"website":"","phone":"","access":"","image":""}},{"type":"Feature","geometry":{"type":"Point","coordinates":[-89.0815358,13.9110687]},"properties":{"osm_id":"node/4318767425","category":"mountain","name":"Cerro El Cumbo","elevation_m":889,"website":"","phone":"","access":"","image":""}},{"type":"Feature","geometry":{"type":"Point","coordinates":[-89.0927543,13.9225571]},"properties":{"osm_id":"node/4318767426","category":"mountain","name":"Cerro El Pital","elevation_m":700,"website":"","phone":"","access":"","image":""}},{"type":"Feature","geometry":{"type":"Point","coordinates":[-89.1064772,14.0273428]},"properties":{"osm_id":"node/4332934890","category":"mountain","name":"Montaña Monte Grueso","elevation_m":null,"website":"","phone":"","access":"","image":""}},{"type":"Feature","geometry":{"type":"Point","coordinates":[-89.58978,14.3287793]},"properties":{"osm_id":"node/4359436016","category":"mountain","name":"Loma La Culebra","elevation_m":null,"website":"","phone":"","access":"","image":""}},{"type":"Feature","geometry":{"type":"Point","coordinates":[-89.5598215,14.3362403]},"properties":{"osm_id":"node/4359436017","category":"mountain","name":"Lomas La Contera","elevation_m":null,"website":"","phone":"","access":"","image":""}},{"type":"Feature","geometry":{"type":"Point","coordinates":[-89.5255257,14.3107066]},"properties":{"osm_id":"node/4359489017","category":"mountain","name":"Cerro Camalotillo","elevation_m":625,"website":"","phone":"","access":"","image":""}},{"type":"Feature","geometry":{"type":"Point","coordinates":[-89.5263293,14.3149716]},"properties":{"osm_id":"node/4359489018","category":"mountain","name":"Cerro Los Negritos","elevation_m":633,"website":"","phone":"","access":"","image":""}},{"type":"Feature","geometry":{"type":"Point","coordinates":[-89.525781,14.3232882]},"properties":{"osm_id":"node/4359489019","category":"mountain","name":"Cerro La Barra","elevation_m":625,"website":"","phone":"","access":"","image":""}},{"type":"Feature","geometry":{"type":"Point","coordinates":[-89.5363878,14.3219304]},"properties":{"osm_id":"node/4359489020","category":"mountain","name":"Cerro El Espinal","elevation_m":521,"website":"","phone":"","access":"","image":""}},{"type":"Feature","geometry":{"type":"Point","coordinates":[-89.5236128,14.3344854]},"properties":{"osm_id":"node/4359489021","category":"mountain","name":"Cerro Tonto","elevation_m":635,"website":"","phone":"","access":"","image":""}},{"type":"Feature","geometry":{"type":"Point","coordinates":[-89.5268048,14.3383182]},"properties":{"osm_id":"node/4359489022","category":"mountain","name":"Cerro El Matadero","elevation_m":635,"website":"","phone":"","access":"","image":""}},{"type":"Feature","geometry":{"type":"Point","coordinates":[-89.555276,14.3089655]},"properties":{"osm_id":"node/4359489023","category":"mountain","name":"Montaña El Tamarindo","elevation_m":null,"website":"","phone":"","access":"","image":""}},{"type":"Feature","geometry":{"type":"Point","coordinates":[-89.5032974,14.2840498]},"properties":{"osm_id":"node/4359489024","category":"mountain","name":"Montaña San Diego","elevation_m":null,"website":"","phone":"","access":"","image":""}},{"type":"Feature","geometry":{"type":"Point","coordinates":[-89.5091983,14.2756176]},"properties":{"osm_id":"node/4359489025","category":"mountain","name":"Montaña El Valdio","elevation_m":null,"website":"","phone":"","access":"","image":""}},{"type":"Feature","geometry":{"type":"Point","coordinates":[-89.4955282,14.2833131]},"properties":{"osm_id":"node/4359489026","category":"mountain","name":"Cerro La Vega de La Caña","elevation_m":538,"website":"","phone":"","access":"","image":""}},{"type":"Feature","geometry":{"type":"Point","coordinates":[-89.4568205,14.2486802]},"properties":{"osm_id":"node/4359489028","category":"mountain","name":"Cerro Teconalá","elevation_m":785,"website":"","phone":"","access":"","image":""}},{"type":"Feature","geometry":{"type":"Point","coordinates":[-89.4705748,14.243044]},"properties":{"osm_id":"node/4359489029","category":"mountain","name":"Cerro Quemado","elevation_m":535,"website":"","phone":"","access":"","image":""}},{"type":"Feature","geometry":{"type":"Point","coordinates":[-89.5687957,14.4164526]},"properties":{"osm_id":"node/4360911262","category":"mountain","name":"Cerro El Mamey","elevation_m":785,"website":"","phone":"","access":"","image":""}},{"type":"Feature","geometry":{"type":"Point","coordinates":[-89.553356,14.4113097]},"properties":{"osm_id":"node/4360911263","category":"mountain","name":"Cerro Los Nolascos","elevation_m":555,"website":"","phone":"","access":"","image":""}},{"type":"Feature","geometry":{"type":"Point","coordinates":[-89.5483091,14.4130922]},"properties":{"osm_id":"node/4360911264","category":"mountain","name":"Cerro El Pinalito","elevation_m":655,"website":"","phone":"","access":"","image":""}},{"type":"Feature","geometry":{"type":"Point","coordinates":[-89.5733561,14.4073732]},"properties":{"osm_id":"node/4360911265","category":"mountain","name":"Cerro El Shiste","elevation_m":812,"website":"","phone":"","access":"","image":""}},{"type":"Feature","geometry":{"type":"Point","coordinates":[-89.57312,14.4033517]},"properties":{"osm_id":"node/4360911266","category":"mountain","name":"Cerro Tecuán","elevation_m":785,"website":"","phone":"","access":"","image":""}},{"type":"Feature","geometry":{"type":"Point","coordinates":[-87.8311468,13.2736838]},"properties":{"osm_id":"node/4382503619","category":"mountain","name":"Montaña El Marial","elevation_m":null,"website":"","phone":"","access":"","image":""}},{"type":"Feature","geometry":{"type":"Point","coordinates":[-87.8418971,13.2837708]},"properties":{"osm_id":"node/4382503620","category":"mountain","name":"Montaña La Ventosa","elevation_m":null,"website":"","phone":"","access":"","image":""}},{"type":"Feature","geometry":{"type":"Point","coordinates":[-87.8700824,13.3023019]},"properties":{"osm_id":"node/4384513968","category":"mountain","name":"Cerro Gualera","elevation_m":327,"website":"","phone":"","access":"","image":""}},{"type":"Feature","geometry":{"type":"Point","coordinates":[-87.8176104,13.3017828]},"properties":{"osm_id":"node/4384513969","category":"mountain","name":"Cerro Bonito","elevation_m":225,"website":"","phone":"","access":"","image":""}},{"type":"Feature","geometry":{"type":"Point","coordinates":[-87.8975891,13.2945076]},"properties":{"osm_id":"node/4384513970","category":"mountain","name":"Cerro El Panal","elevation_m":225,"website":"","phone":"","access":"","image":""}},{"type":"Feature","geometry":{"type":"Point","coordinates":[-87.8907522,13.2928715]},"properties":{"osm_id":"node/4384513971","category":"mountain","name":"Cerro El Duende","elevation_m":404,"website":"","phone":"","access":"","image":""}},{"type":"Feature","geometry":{"type":"Point","coordinates":[-87.8616289,13.2672511]},"properties":{"osm_id":"node/4384513972","category":"mountain","name":"Cerro Partido","elevation_m":923,"website":"","phone":"","access":"","image":""}},{"type":"Feature","geometry":{"type":"Point","coordinates":[-87.8825287,13.291205]},"properties":{"osm_id":"node/4384518084","category":"mountain","name":"Montaña El Infiernillo","elevation_m":null,"website":"","phone":"","access":"","image":""}},{"type":"Feature","geometry":{"type":"Point","coordinates":[-89.2123976,13.8201383]},"properties":{"osm_id":"node/4388482642","category":"mountain","name":"Cerro de Nejapa o Chapantepec","elevation_m":918.78,"website":"","phone":"","access":"","image":""}},{"type":"Feature","geometry":{"type":"Point","coordinates":[-88.8224922,13.575387]},"properties":{"osm_id":"node/4406255195","category":"mountain","name":"Cerro El Cerrón","elevation_m":1035,"website":"","phone":"","access":"","image":""}},{"type":"Feature","geometry":{"type":"Point","coordinates":[-88.8249976,13.5662644]},"properties":{"osm_id":"node/4406255196","category":"mountain","name":"Cerro Alcantor","elevation_m":835,"website":"","phone":"","access":"","image":""}},{"type":"Feature","geometry":{"type":"Point","coordinates":[-88.8291697,13.5613601]},"properties":{"osm_id":"node/4406255197","category":"mountain","name":"Cerro Los Soldados","elevation_m":843,"website":"","phone":"","access":"","image":""}},{"type":"Feature","geometry":{"type":"Point","coordinates":[-88.8045792,13.6038052]},"properties":{"osm_id":"node/4406255198","category":"mountain","name":"Cerro La Mesa","elevation_m":815,"website":"","phone":"","access":"","image":""}},{"type":"Feature","geometry":{"type":"Point","coordinates":[-88.8141493,13.6067041]},"properties":{"osm_id":"node/4406255199","category":"mountain","name":"Cerro El Escorpión","elevation_m":1005,"website":"","phone":"","access":"","image":""}},{"type":"Feature","geometry":{"type":"Point","coordinates":[-88.8852138,13.6229818]},"properties":{"osm_id":"node/4406255200","category":"mountain","name":"Cerro El Cimarrón","elevation_m":884,"website":"","phone":"","access":"","image":""}},{"type":"Feature","geometry":{"type":"Point","coordinates":[-88.8778542,13.5910513]},"properties":{"osm_id":"node/4406255201","category":"mountain","name":"Cerro El Cerrito","elevation_m":1110,"website":"","phone":"","access":"","image":""}},{"type":"Feature","geometry":{"type":"Point","coordinates":[-88.8914425,13.5987825]},"properties":{"osm_id":"node/4406255202","category":"mountain","name":"Cerro El Volcancito","elevation_m":1142,"website":"","phone":"","access":"","image":""}},{"type":"Feature","geometry":{"type":"Point","coordinates":[-88.8969006,13.612046]},"properties":{"osm_id":"node/4406255203","category":"mountain","name":"Cerro La Carbonera","elevation_m":1070,"website":"","phone":"","access":"","image":""}},{"type":"Feature","geometry":{"type":"Point","coordinates":[-88.8982229,13.6259921]},"properties":{"osm_id":"node/4406255204","category":"mountain","name":"Cerro San Antonio","elevation_m":845,"website":"","phone":"","access":"","image":""}},{"type":"Feature","geometry":{"type":"Point","coordinates":[-89.7849766,13.8949307]},"properties":{"osm_id":"node/4429601553","category":"mountain","name":"Cerro Laguna Verde","elevation_m":1699,"website":"","phone":"","access":"","image":""}},{"type":"Feature","geometry":{"type":"Point","coordinates":[-89.5892991,13.5128979]},"properties":{"osm_id":"node/4491505146","category":"mountain","name":"Cerro Mizata","elevation_m":225,"website":"","phone":"","access":"","image":""}},{"type":"Feature","geometry":{"type":"Point","coordinates":[-89.5857703,13.517167]},"properties":{"osm_id":"node/4491505147","category":"mountain","name":"Cerro de Texisio","elevation_m":null,"website":"","phone":"","access":"","image":""}},{"type":"Feature","geometry":{"type":"Point","coordinates":[-89.5940792,13.5330513]},"properties":{"osm_id":"node/4491505148","category":"mountain","name":"Cerro Punta de Diamante","elevation_m":315,"website":"","phone":"","access":"","image":""}},{"type":"Feature","geometry":{"type":"Point","coordinates":[-89.6010389,13.5221251]},"properties":{"osm_id":"node/4491505149","category":"mountain","name":"Loma La Falda","elevation_m":null,"website":"","phone":"","access":"","image":""}},{"type":"Feature","geometry":{"type":"Point","coordinates":[-89.8000124,13.8404171]},"properties":{"osm_id":"node/4522531089","category":"mountain","name":"Cerro de Apaneca o Chichicastepec","elevation_m":1841,"website":"","phone":"","access":"","image":""}},{"type":"Feature","geometry":{"type":"Point","coordinates":[-89.8076472,13.8380225]},"properties":{"osm_id":"node/4522531090","category":"mountain","name":"Cerro Alta Cresta","elevation_m":1816,"website":"","phone":"","access":"","image":""}},{"type":"Feature","geometry":{"type":"Point","coordinates":[-89.5608108,13.8437857]},"properties":{"osm_id":"node/4557928510","category":"mountain","name":"Sin nombre","elevation_m":916,"website":"","phone":"","access":"","image":""}},{"type":"Feature","geometry":{"type":"Point","coordinates":[-89.4451802,13.7287757]},"properties":{"osm_id":"node/4571345663","category":"mountain","name":"Cerro Las Pascuas","elevation_m":745,"website":"","phone":"","access":"","image":""}},{"type":"Feature","geometry":{"type":"Point","coordinates":[-88.4968229,13.1942814]},"properties":{"osm_id":"node/4751928716","category":"mountain","name":"Punta El Toro","elevation_m":null,"website":"","phone":"","access":"","image":""}},{"type":"Feature","geometry":{"type":"Point","coordinates":[-88.4746295,13.1826433]},"properties":{"osm_id":"node/4751928717","category":"mountain","name":"Punta San Juan","elevation_m":null,"website":"","phone":"","access":"","image":""}},{"type":"Feature","geometry":{"type":"Point","coordinates":[-88.5368815,13.2088896]},"properties":{"osm_id":"node/4751930466","category":"mountain","name":"Punta El Remolino","elevation_m":null,"website":"","phone":"","access":"","image":""}},{"type":"Feature","geometry":{"type":"Point","coordinates":[-88.5469908,13.2155226]},"properties":{"osm_id":"node/4752028821","category":"mountain","name":"Punta El Botadero","elevation_m":null,"website":"","phone":"","access":"","image":""}},{"type":"Feature","geometry":{"type":"Point","coordinates":[-88.6310905,13.2545718]},"properties":{"osm_id":"node/4755526444","category":"mountain","name":"Punta Las Cocinas","elevation_m":null,"website":"","phone":"","access":"","image":""}},{"type":"Feature","geometry":{"type":"Point","coordinates":[-88.644611,13.2453015]},"properties":{"osm_id":"node/4755526445","category":"mountain","name":"Punta El Tamarindo","elevation_m":null,"website":"","phone":"","access":"","image":""}},