{"type":"FeatureCollection","metadata":{"source":"OpenStreetMap","fetched_at":"2026-07-12T06:18:34.086Z","disclaimer":"Los campos dependen de lo publicado por cada establecimiento. Precio, fotos y disponibilidad requieren proveedor comercial o contacto directo."},"features":[{"type":"Feature","geometry":{"type":"Point","coordinates":[-89.270305,13.6791152]},"properties":{"name":"Celeste Imperio","kind":"restaurant","opening_hours":"","cuisine":"","phone":"","website":"","email":"","stars":"","rooms":"","internet_access":"","wheelchair":"","outdoor_seating":"","takeaway":"","delivery":"","payment":"","source":"OpenStreetMap","availability":"Consultar directamente con el establecimiento"}},{"type":"Feature","geometry":{"type":"Point","coordinates":[-89.2549638,13.6701605]},"properties":{"name":"La Panetiere","kind":"restaurant","opening_hours":"","cuisine":"","phone":"","website":"","email":"","stars":"","rooms":"","internet_access":"","wheelchair":"","outdoor_seating":"","takeaway":"","delivery":"","payment":"","source":"OpenStreetMap","availability":"Consultar directamente con el establecimiento"}},{"type":"Feature","geometry":{"type":"Point","coordinates":[-89.2540744,13.6643453]},"properties":{"name":"Beverly Hills","kind":"hotel","opening_hours":"","cuisine":"","phone":"","website":"","email":"","stars":"","rooms":"","internet_access":"","wheelchair":"","outdoor_seating":"","takeaway":"","delivery":"","payment":"","source":"OpenStreetMap","availability":"Consultar directamente con el establecimiento"}},{"type":"Feature","geometry":{"type":"Point","coordinates":[-89.8344768,13.5888714]},"properties":{"name":"Restaurante Acajutla","kind":"restaurant","opening_hours":"","cuisine":"fish;seafood","phone":"","website":"","email":"","stars":"","rooms":"","internet_access":"","wheelchair":"","outdoor_seating":"","takeaway":"","delivery":"","payment":"","source":"OpenStreetMap","availability":"Consultar directamente con el establecimiento"}},{"type":"Feature","geometry":{"type":"Point","coordinates":[-88.184047,13.47693]},"properties":{"name":"Hotel Trópico Inn","kind":"hotel","opening_hours":"","cuisine":"","phone":"","website":"","email":"","stars":"","rooms":"","internet_access":"","wheelchair":"","outdoor_seating":"","takeaway":"","delivery":"","payment":"","source":"OpenStreetMap","availability":"Consultar directamente con el establecimiento"}},{"type":"Feature","geometry":{"type":"Point","coordinates":[-89.852339,13.8686713]},"properties":{"name":"Posada de Don Oli","kind":"hotel","opening_hours":"","cuisine":"","phone":"","website":"","email":"","stars":"","rooms":"","internet_access":"","wheelchair":"","outdoor_seating":"","takeaway":"","delivery":"","payment":"","source":"OpenStreetMap","availability":"Consultar directamente con el establecimiento"}},{"type":"Feature","geometry":{"type":"Point","coordinates":[-89.8089112,13.5276324]},"properties":{"name":"Las Veraneras","kind":"hotel","opening_hours":"","cuisine":"","phone":"","website":"","email":"","stars":"","rooms":"","internet_access":"","wheelchair":"","outdoor_seating":"","takeaway":"","delivery":"","payment":"","source":"OpenStreetMap","availability":"Consultar directamente con el establecimiento"}},{"type":"Feature","geometry":{"type":"Point","coordinates":[-89.3849535,13.4934733]},"properties":{"name":"Roca Sunzal Surf Resort","kind":"hotel","opening_hours":"","cuisine":"","phone":"","website":"https://rocasunzal.com/","email":"","stars":"","rooms":"","internet_access":"","wheelchair":"","outdoor_seating":"","takeaway":"","delivery":"","payment":"","source":"OpenStreetMap","availability":"Consultar directamente con el establecimiento"}},{"type":"Feature","geometry":{"type":"Point","coordinates":[-89.8479282,13.9213409]},"properties":{"name":"Hotel Astoria","kind":"hotel","opening_hours":"","cuisine":"","phone":"","website":"","email":"","stars":"","rooms":"","internet_access":"","wheelchair":"","outdoor_seating":"","takeaway":"","delivery":"","payment":"","source":"OpenStreetMap","availability":"Consultar directamente con el establecimiento"}},{"type":"Feature","geometry":{"type":"Point","coordinates":[-87.8918636,13.6254445]},"properties":{"name":"Pollo Campero","kind":"restaurant","opening_hours":"","cuisine":"","phone":"","website":"","email":"","stars":"","rooms":"","internet_access":"","wheelchair":"","outdoor_seating":"","takeaway":"","delivery":"","payment":"","source":"OpenStreetMap","availability":"Consultar directamente con el establecimiento"}},{"type":"Feature","geometry":{"type":"Point","coordinates":[-89.200069,13.7004471]},"properties":{"name":"Hotel American","kind":"hotel","opening_hours":"","cuisine":"","phone":"","website":"","email":"","stars":"","rooms":"","internet_access":"","wheelchair":"","outdoor_seating":"","takeaway":"","delivery":"","payment":"","source":"OpenStreetMap","availability":"Consultar directamente con el establecimiento"}},{"type":"Feature","geometry":{"type":"Point","coordinates":[-89.2591059,13.6624855]},"properties":{"name":"Mister Donut","kind":"fast_food","opening_hours":"","cuisine":"donut","phone":"","website":"","email":"","stars":"","rooms":"","internet_access":"","wheelchair":"","outdoor_seating":"","takeaway":"yes","delivery":"","payment":"","source":"OpenStreetMap","availability":"Consultar directamente con el establecimiento"}},{"type":"Feature","geometry":{"type":"Point","coordinates":[-89.2526159,13.6624429]},"properties":{"name":"Super Marino","kind":"fast_food","opening_hours":"","cuisine":"","phone":"","website":"","email":"","stars":"","rooms":"","internet_access":"","wheelchair":"","outdoor_seating":"","takeaway":"","delivery":"","payment":"","source":"OpenStreetMap","availability":"Consultar directamente con el establecimiento"}},{"type":"Feature","geometry":{"type":"Point","coordinates":[-89.2480017,13.7031894]},"properties":{"name":"Tacos Tapatillos","kind":"restaurant","opening_hours":"","cuisine":"mexican","phone":"","website":"","email":"","stars":"","rooms":"","internet_access":"","wheelchair":"","outdoor_seating":"","takeaway":"","delivery":"","payment":"","source":"OpenStreetMap","availability":"Consultar directamente con el establecimiento"}},{"type":"Feature","geometry":{"type":"Point","coordinates":[-89.2166381,13.6914502]},"properties":{"name":"Ipanema","kind":"motel","opening_hours":"","cuisine":"","phone":"","website":"","email":"","stars":"","rooms":"","internet_access":"","wheelchair":"","outdoor_seating":"","takeaway":"","delivery":"","payment":"","source":"OpenStreetMap","availability":"Consultar directamente con el establecimiento"}},{"type":"Feature","geometry":{"type":"Point","coordinates":[-89.3839395,13.4954854]},"properties":{"name":"Pasada Luna","kind":"hotel","opening_hours":"","cuisine":"","phone":"","website":"","email":"","stars":"","rooms":"","internet_access":"","wheelchair":"","outdoor_seating":"","takeaway":"","delivery":"","payment":"","source":"OpenStreetMap","availability":"Consultar directamente con el establecimiento"}},{"type":"Feature","geometry":{"type":"Point","coordinates":[-89.1495892,13.6998407]},"properties":{"name":"Burger King","kind":"fast_food","opening_hours":"","cuisine":"burger","phone":"","website":"","email":"","stars":"","rooms":"","internet_access":"","wheelchair":"","outdoor_seating":"","takeaway":"yes","delivery":"","payment":"","source":"OpenStreetMap","availability":"Consultar directamente con el establecimiento"}},{"type":"Feature","geometry":{"type":"Point","coordinates":[-89.2366812,13.6922036]},"properties":{"name":"Quiznos","kind":"fast_food","opening_hours":"","cuisine":"sandwich","phone":"","website":"","email":"","stars":"","rooms":"","internet_access":"","wheelchair":"","outdoor_seating":"","takeaway":"yes","delivery":"","payment":"","source":"OpenStreetMap","availability":"Consultar directamente con el establecimiento"}},{"type":"Feature","geometry":{"type":"Point","coordinates":[-89.1960202,13.6990822]},"properties":{"name":"Shi Fam","kind":"restaurant","opening_hours":"","cuisine":"chinese","phone":"","website":"","email":"","stars":"","rooms":"","internet_access":"","wheelchair":"","outdoor_seating":"","takeaway":"","delivery":"","payment":"","source":"OpenStreetMap","availability":"Consultar directamente con el establecimiento"}},{"type":"Feature","geometry":{"type":"Point","coordinates":[-89.2132457,13.7161649]},"properties":{"name":"Mister Donuts San Luis","kind":"fast_food","opening_hours":"","cuisine":"donut","phone":"","website":"","email":"","stars":"","rooms":"","internet_access":"","wheelchair":"","outdoor_seating":"","takeaway":"","delivery":"","payment":"","source":"OpenStreetMap","availability":"Consultar directamente con el establecimiento"}},{"type":"Feature","geometry":{"type":"Point","coordinates":[-89.2137399,13.7161531]},"properties":{"name":"Little Caesars","kind":"fast_food","opening_hours":"Mo-Su 09:00-21:00; PH off","cuisine":"pizza","phone":"+503 2510 2254","website":"","email":"","stars":"","rooms":"","internet_access":"","wheelchair":"","outdoor_seating":"","takeaway":"yes","delivery":"","payment":"","source":"OpenStreetMap","availability":"Consultar directamente con el establecimiento"}},{"type":"Feature","geometry":{"type":"Point","coordinates":[-89.210135,13.7169141]},"properties":{"name":"Las Fajitas","kind":"restaurant","opening_hours":"Mo-Su 11:00-22:00","cuisine":"mexican","phone":"","website":"","email":"","stars":"","rooms":"","internet_access":"","wheelchair":"","outdoor_seating":"","takeaway":"","delivery":"","payment":"","source":"OpenStreetMap","availability":"Consultar directamente con el establecimiento"}},{"type":"Feature","geometry":{"type":"Point","coordinates":[-89.2098024,13.7169871]},"properties":{"name":"El Establo","kind":"restaurant","opening_hours":"","cuisine":"","phone":"","website":"","email":"","stars":"","rooms":"","internet_access":"","wheelchair":"","outdoor_seating":"","takeaway":"","delivery":"","payment":"","source":"OpenStreetMap","availability":"Consultar directamente con el establecimiento"}},{"type":"Feature","geometry":{"type":"Point","coordinates":[-89.2097702,13.7166535]},"properties":{"name":"Pizza Nova","kind":"fast_food","opening_hours":"Mo-Su 11:00-23:00","cuisine":"pizza","phone":"+503 2225 9362","website":"","email":"","stars":"","rooms":"","internet_access":"","wheelchair":"","outdoor_seating":"","takeaway":"","delivery":"","payment":"","source":"OpenStreetMap","availability":"Consultar directamente con el establecimiento"}},{"type":"Feature","geometry":{"type":"Point","coordinates":[-89.2128384,13.7155984]},"properties":{"name":"Burger King San Luis","kind":"fast_food","opening_hours":"","cuisine":"burger","phone":"","website":"","email":"","stars":"","rooms":"","internet_access":"","wheelchair":"","outdoor_seating":"","takeaway":"","delivery":"","payment":"","source":"OpenStreetMap","availability":"Consultar directamente con el establecimiento"}},{"type":"Feature","geometry":{"type":"Point","coordinates":[-89.224505,13.6989656]},"properties":{"name":"Pura Vida","kind":"restaurant","opening_hours":"","cuisine":"","phone":"","website":"","email":"","stars":"","rooms":"","internet_access":"","wheelchair":"","outdoor_seating":"","takeaway":"","delivery":"","payment":"","source":"OpenStreetMap","availability":"Consultar directamente con el establecimiento"}},{"type":"Feature","geometry":{"type":"Point","coordinates":[-89.2200689,13.6984756]},"properties":{"name":"Subway","kind":"fast_food","opening_hours":"","cuisine":"sandwich","phone":"","website":"","email":"","stars":"","rooms":"","internet_access":"","wheelchair":"","outdoor_seating":"","takeaway":"yes","delivery":"","payment":"","source":"OpenStreetMap","availability":"Consultar directamente con el establecimiento"}},{"type":"Feature","geometry":{"type":"Point","coordinates":[-89.1903752,13.6971639]},"properties":{"name":"Pollo Campestre","kind":"restaurant","opening_hours":"","cuisine":"chicken","phone":"","website":"","email":"","stars":"","rooms":"","internet_access":"","wheelchair":"","outdoor_seating":"","takeaway":"","delivery":"","payment":"","source":"OpenStreetMap","availability":"Consultar directamente con el establecimiento"}},{"type":"Feature","geometry":{"type":"Point","coordinates":[-89.2322539,13.7071673]},"properties":{"name":"Amsterdam","kind":"restaurant","opening_hours":"","cuisine":"","phone":"","website":"","email":"","stars":"","rooms":"","internet_access":"","wheelchair":"","outdoor_seating":"","takeaway":"","delivery":"","payment":"","source":"OpenStreetMap","availability":"Consultar directamente con el establecimiento"}},{"type":"Feature","geometry":{"type":"Point","coordinates":[-89.2376935,13.7073654]},"properties":{"name":"La Ventana","kind":"restaurant","opening_hours":"","cuisine":"german","phone":"","website":"","email":"","stars":"","rooms":"","internet_access":"","wheelchair":"","outdoor_seating":"","takeaway":"","delivery":"","payment":"","source":"OpenStreetMap","availability":"Consultar directamente con el establecimiento"}},{"type":"Feature","geometry":{"type":"Point","coordinates":[-89.1954998,13.6993063]},"properties":{"name":"Bonanza","kind":"restaurant","opening_hours":"","cuisine":"chicken","phone":"","website":"","email":"","stars":"","rooms":"","internet_access":"","wheelchair":"","outdoor_seating":"","takeaway":"","delivery":"","payment":"","source":"OpenStreetMap","availability":"Consultar directamente con el establecimiento"}},{"type":"Feature","geometry":{"type":"Point","coordinates":[-89.2365895,13.6924708]},"properties":{"name":"Go Green","kind":"cafe","opening_hours":"","cuisine":"","phone":"","website":"","email":"","stars":"","rooms":"","internet_access":"","wheelchair":"","outdoor_seating":"","takeaway":"","delivery":"","payment":"","source":"OpenStreetMap","availability":"Consultar directamente con el establecimiento"}},{"type":"Feature","geometry":{"type":"Point","coordinates":[-89.1925983,13.7030569]},"properties":{"name":"Pollo Campero","kind":"fast_food","opening_hours":"","cuisine":"chicken","phone":"","website":"","email":"","stars":"","rooms":"","internet_access":"","wheelchair":"","outdoor_seating":"","takeaway":"yes","delivery":"","payment":"","source":"OpenStreetMap","availability":"Consultar directamente con el establecimiento"}},{"type":"Feature","geometry":{"type":"Point","coordinates":[-89.1919357,13.6842899]},"properties":{"name":"Pollo Campero","kind":"fast_food","opening_hours":"","cuisine":"chicken","phone":"","website":"","email":"","stars":"","rooms":"","internet_access":"","wheelchair":"","outdoor_seating":"","takeaway":"yes","delivery":"","payment":"","source":"OpenStreetMap","availability":"Consultar directamente con el establecimiento"}},{"type":"Feature","geometry":{"type":"Point","coordinates":[-89.2188009,13.7165594]},"properties":{"name":"El Balsamar","kind":"restaurant","opening_hours":"","cuisine":"","phone":"","website":"","email":"","stars":"","rooms":"","internet_access":"","wheelchair":"","outdoor_seating":"","takeaway":"","delivery":"","payment":"","source":"OpenStreetMap","availability":"Consultar directamente con el establecimiento"}},{"type":"Feature","geometry":{"type":"Point","coordinates":[-89.2023984,13.7274722]},"properties":{"name":"Mister Donut","kind":"fast_food","opening_hours":"","cuisine":"donut","phone":"","website":"","email":"","stars":"","rooms":"","internet_access":"","wheelchair":"","outdoor_seating":"","takeaway":"","delivery":"","payment":"","source":"OpenStreetMap","availability":"Consultar directamente con el establecimiento"}},{"type":"Feature","geometry":{"type":"Point","coordinates":[-89.245043,13.6782339]},"properties":{"name":"Hacienda de los Mirandas","kind":"restaurant","opening_hours":"","cuisine":"","phone":"","website":"","email":"","stars":"","rooms":"","internet_access":"","wheelchair":"","outdoor_seating":"","takeaway":"","delivery":"","payment":"","source":"OpenStreetMap","availability":"Consultar directamente con el establecimiento"}},{"type":"Feature","geometry":{"type":"Point","coordinates":[-89.0978034,13.7156038]},"properties":{"name":"Burger King","kind":"fast_food","opening_hours":"","cuisine":"burger","phone":"","website":"","email":"","stars":"","rooms":"","internet_access":"","wheelchair":"","outdoor_seating":"","takeaway":"yes","delivery":"","payment":"","source":"OpenStreetMap","availability":"Consultar directamente con el establecimiento"}},{"type":"Feature","geometry":{"type":"Point","coordinates":[-88.1741023,13.4941568]},"properties":{"name":"Burger King","kind":"fast_food","opening_hours":"","cuisine":"burger","phone":"","website":"","email":"","stars":"","rooms":"","internet_access":"","wheelchair":"","outdoor_seating":"","takeaway":"yes","delivery":"","payment":"","source":"OpenStreetMap","availability":"Consultar directamente con el establecimiento"}},{"type":"Feature","geometry":{"type":"Point","coordinates":[-88.173667,13.4943172]},"properties":{"name":"Pollo Campestre","kind":"fast_food","opening_hours":"","cuisine":"chicken","phone":"","website":"","email":"","stars":"","rooms":"","internet_access":"","wheelchair":"","outdoor_seating":"","takeaway":"","delivery":"","payment":"","source":"OpenStreetMap","availability":"Consultar directamente con el establecimiento"}},{"type":"Feature","geometry":{"type":"Point","coordinates":[-88.8508729,13.8414508]},"properties":{"name":"Pollo Campestre","kind":"restaurant","opening_hours":"Mo-Su 07:00-20:30","cuisine":"chicken;burger;coffee_shop","phone":"2121-2828, 2312-7228","website":"https://www.pollocampestre.com/","email":"","stars":"","rooms":"","internet_access":"","wheelchair":"","outdoor_seating":"","takeaway":"yes","delivery":"yes","payment":"","source":"OpenStreetMap","availability":"Consultar directamente con el establecimiento"}},{"type":"Feature","geometry":{"type":"Point","coordinates":[-89.2411095,13.7086273]},"properties":{"name":"Plaza Futura, World Trade Center","kind":"restaurant","opening_hours":"","cuisine":"","phone":"","website":"","email":"","stars":"","rooms":"","internet_access":"","wheelchair":"","outdoor_seating":"","takeaway":"","delivery":"","payment":"","source":"OpenStreetMap","availability":"Consultar directamente con el establecimiento"}},{"type":"Feature","geometry":{"type":"Point","coordinates":[-89.2018947,13.7280919]},"properties":{"name":"El Costillon","kind":"restaurant","opening_hours":"","cuisine":"","phone":"","website":"","email":"","stars":"","rooms":"","internet_access":"","wheelchair":"","outdoor_seating":"","takeaway":"","delivery":"","payment":"","source":"OpenStreetMap","availability":"Consultar directamente con el establecimiento"}},{"type":"Feature","geometry":{"type":"Point","coordinates":[-89.2505398,13.707763]},"properties":{"name":"La Lunch-era","kind":"cafe","opening_hours":"","cuisine":"","phone":"","website":"","email":"","stars":"","rooms":"","internet_access":"","wheelchair":"","outdoor_seating":"","takeaway":"","delivery":"","payment":"","source":"OpenStreetMap","availability":"Consultar directamente con el establecimiento"}},{"type":"Feature","geometry":{"type":"Point","coordinates":[-89.5612612,13.9922613]},"properties":{"name":"Hostal Casa Verde","kind":"hotel","opening_hours":"","cuisine":"","phone":"","website":"","email":"","stars":"","rooms":"","internet_access":"","wheelchair":"","outdoor_seating":"","takeaway":"","delivery":"","payment":"","source":"OpenStreetMap","availability":"Consultar directamente con el establecimiento"}},{"type":"Feature","geometry":{"type":"Point","coordinates":[-89.8551674,13.9385408]},"properties":{"name":"El Parador","kind":"hotel","opening_hours":"","cuisine":"","phone":"","website":"","email":"","stars":"","rooms":"","internet_access":"","wheelchair":"","outdoor_seating":"","takeaway":"","delivery":"","payment":"","source":"OpenStreetMap","availability":"Consultar directamente con el establecimiento"}},{"type":"Feature","geometry":{"type":"Point","coordinates":[-89.8551668,13.9384367]},"properties":{"name":"El　Parador","kind":"restaurant","opening_hours":"","cuisine":"regional","phone":"","website":"","email":"","stars":"","rooms":"","internet_access":"","wheelchair":"","outdoor_seating":"","takeaway":"","delivery":"","payment":"","source":"OpenStreetMap","availability":"Consultar directamente con el establecimiento"}},{"type":"Feature","geometry":{"type":"Point","coordinates":[-89.8555745,13.9400715]},"properties":{"name":"Pupusa Loca","kind":"restaurant","opening_hours":"","cuisine":"","phone":"","website":"","email":"","stars":"","rooms":"","internet_access":"","wheelchair":"","outdoor_seating":"","takeaway":"","delivery":"","payment":"","source":"OpenStreetMap","availability":"Consultar directamente con el establecimiento"}},{"type":"Feature","geometry":{"type":"Point","coordinates":[-88.1042754,13.6964707]},"properties":{"name":"Pollo Campestre","kind":"fast_food","opening_hours":"","cuisine":"","phone":"","website":"","email":"","stars":"","rooms":"","internet_access":"","wheelchair":"","outdoor_seating":"","takeaway":"","delivery":"","payment":"","source":"OpenStreetMap","availability":"Consultar directamente con el establecimiento"}},{"type":"Feature","geometry":{"type":"Point","coordinates":[-88.1023788,13.694758]},"properties":{"name":"Panadería Ana Vilma","kind":"cafe","opening_hours":"","cuisine":"","phone":"","website":"","email":"","stars":"","rooms":"","internet_access":"","wheelchair":"","outdoor_seating":"","takeaway":"","delivery":"","payment":"","source":"OpenStreetMap","availability":"Consultar directamente con el establecimiento"}},{"type":"Feature","geometry":{"type":"Point","coordinates":[-89.6878954,13.9928075]},"properties":{"name":"Pupusas","kind":"fast_food","opening_hours":"","cuisine":"","phone":"","website":"","email":"","stars":"","rooms":"","internet_access":"","wheelchair":"","outdoor_seating":"","takeaway":"","delivery":"","payment":"","source":"OpenStreetMap","availability":"Consultar directamente con el establecimiento"}},{"type":"Feature","geometry":{"type":"Point","coordinates":[-89.8453282,13.9214937]},"properties":{"name":"Hotel Kankan","kind":"hotel","opening_hours":"","cuisine":"","phone":"","website":"","email":"","stars":"","rooms":"","internet_access":"","wheelchair":"","outdoor_seating":"","takeaway":"","delivery":"","payment":"","source":"OpenStreetMap","availability":"Consultar directamente con el establecimiento"}},{"type":"Feature","geometry":{"type":"Point","coordinates":[-89.8484771,13.9201269]},"properties":{"name":"Mixta\"S\"","kind":"restaurant","opening_hours":"","cuisine":"El Salvadoran","phone":"","website":"","email":"","stars":"","rooms":"","internet_access":"","wheelchair":"","outdoor_seating":"","takeaway":"","delivery":"","payment":"","source":"OpenStreetMap","availability":"Consultar directamente con el establecimiento"}},{"type":"Feature","geometry":{"type":"Point","coordinates":[-89.8487646,13.9184952]},"properties":{"name":"La Nevería","kind":"restaurant","opening_hours":"","cuisine":"ice_cream","phone":"","website":"","email":"","stars":"","rooms":"","internet_access":"","wheelchair":"","outdoor_seating":"","takeaway":"","delivery":"","payment":"","source":"OpenStreetMap","availability":"Consultar directamente con el establecimiento"}},{"type":"Feature","geometry":{"type":"Point","coordinates":[-89.8485147,13.9188642]},"properties":{"name":"Sin nombre","kind":"restaurant","opening_hours":"","cuisine":"","phone":"","website":"","email":"","stars":"","rooms":"","internet_access":"","wheelchair":"","outdoor_seating":"","takeaway":"","delivery":"","payment":"","source":"OpenStreetMap","availability":"Consultar directamente con el establecimiento"}},{"type":"Feature","geometry":{"type":"Point","coordinates":[-89.805425,13.7696358]},"properties":{"name":"Doña Jeanet","kind":"restaurant","opening_hours":"","cuisine":"pupuseria","phone":"","website":"","email":"","stars":"","rooms":"","internet_access":"","wheelchair":"","outdoor_seating":"","takeaway":"","delivery":"","payment":"","source":"OpenStreetMap","availability":"Consultar directamente con el establecimiento"}},{"type":"Feature","geometry":{"type":"Point","coordinates":[-89.4966236,14.1233642]},"properties":{"name":"Los Nopales","kind":"restaurant","opening_hours":"","cuisine":"mexican","phone":"","website":"","email":"","stars":"","rooms":"","internet_access":"","wheelchair":"","outdoor_seating":"","takeaway":"","delivery":"","payment":"","source":"OpenStreetMap","availability":"Consultar directamente con el establecimiento"}},{"type":"Feature","geometry":{"type":"Point","coordinates":[-89.2423814,13.6738534]},"properties":{"name":"Comedores","kind":"restaurant","opening_hours":"","cuisine":"","phone":"","website":"","email":"","stars":"","rooms":"","internet_access":"","wheelchair":"","outdoor_seating":"","takeaway":"","delivery":"","payment":"","source":"OpenStreetMap","availability":"Consultar directamente con el establecimiento"}},{"type":"Feature","geometry":{"type":"Point","coordinates":[-89.2273714,13.6764857]},"properties":{"name":"Pizza Nova","kind":"fast_food","opening_hours":"","cuisine":"pizza","phone":"","website":"","email":"","stars":"","rooms":"","internet_access":"","wheelchair":"","outdoor_seating":"","takeaway":"","delivery":"","payment":"","source":"OpenStreetMap","availability":"Consultar directamente con el establecimiento"}},{"type":"Feature","geometry":{"type":"Point","coordinates":[-89.2265051,13.6763294]},"properties":{"name":"Comedor","kind":"restaurant","opening_hours":"","cuisine":"","phone":"","website":"","email":"","stars":"","rooms":"","internet_access":"","wheelchair":"","outdoor_seating":"","takeaway":"","delivery":"","payment":"","source":"OpenStreetMap","availability":"Consultar directamente con el establecimiento"}},{"type":"Feature","geometry":{"type":"Point","coordinates":[-89.2260626,13.6775593]},"properties":{"name":"Pupuseria y Tortilleria","kind":"restaurant","opening_hours":"","cuisine":"","phone":"","website":"","email":"","stars":"","rooms":"","internet_access":"","wheelchair":"","outdoor_seating":"","takeaway":"","delivery":"","payment":"","source":"OpenStreetMap","availability":"Consultar directamente con el establecimiento"}},{"type":"Feature","geometry":{"type":"Point","coordinates":[-89.2167242,13.6887084]},"properties":{"name":"Comida china","kind":"restaurant","opening_hours":"","cuisine":"chinese","phone":"","website":"","email":"","stars":"","rooms":"","internet_access":"","wheelchair":"","outdoor_seating":"","takeaway":"","delivery":"","payment":"","source":"OpenStreetMap","availability":"Consultar directamente con el establecimiento"}},{"type":"Feature","geometry":{"type":"Point","coordinates":[-89.3619539,13.4887021]},"properties":{"name":"La Ramada 2","kind":"restaurant","opening_hours":"","cuisine":"","phone":"","website":"","email":"","stars":"","rooms":"","internet_access":"","wheelchair":"","outdoor_seating":"","takeaway":"","delivery":"","payment":"","source":"OpenStreetMap","availability":"Consultar directamente con el establecimiento"}},{"type":"Feature","geometry":{"type":"Point","coordinates":[-89.4012053,13.4934646]},"properties":{"name":"La Curva de Don Gere","kind":"restaurant","opening_hours":"","cuisine":"","phone":"","website":"","email":"","stars":"","rooms":"","internet_access":"","wheelchair":"","outdoor_seating":"","takeaway":"","delivery":"","payment":"","source":"OpenStreetMap","availability":"Consultar directamente con el establecimiento"}},{"type":"Feature","geometry":{"type":"Point","coordinates":[-89.3893734,13.4937514]},"properties":{"name":"KAYU","kind":"restaurant","opening_hours":"","cuisine":"","phone":"","website":"","email":"","stars":"","rooms":"","internet_access":"","wheelchair":"","outdoor_seating":"","takeaway":"","delivery":"","payment":"","source":"OpenStreetMap","availability":"Consultar directamente con el establecimiento"}},{"type":"Feature","geometry":{"type":"Point","coordinates":[-89.2461177,13.676123]},"properties":{"name":"Vivero Cafe el Arco","kind":"restaurant","opening_hours":"","cuisine":"","phone":"","website":"","email":"","stars":"","rooms":"","internet_access":"","wheelchair":"","outdoor_seating":"","takeaway":"","delivery":"","payment":"","source":"OpenStreetMap","availability":"Consultar directamente con el establecimiento"}},{"type":"Feature","geometry":{"type":"Point","coordinates":[-89.2481588,13.7121036]},"properties":{"name":"Restaurante el Ancla","kind":"restaurant","opening_hours":"","cuisine":"","phone":"","website":"","email":"","stars":"","rooms":"","internet_access":"","wheelchair":"","outdoor_seating":"","takeaway":"","delivery":"","payment":"","source":"OpenStreetMap","availability":"Consultar directamente con el establecimiento"}},{"type":"Feature","geometry":{"type":"Point","coordinates":[-89.3826341,13.6542339]},"properties":{"name":"El Mirador de la Giralda","kind":"restaurant","opening_hours":"","cuisine":"","phone":"","website":"","email":"","stars":"","rooms":"","internet_access":"","wheelchair":"","outdoor_seating":"","takeaway":"","delivery":"","payment":"","source":"OpenStreetMap","availability":"Consultar directamente con el establecimiento"}},{"type":"Feature","geometry":{"type":"Point","coordinates":[-89.2667402,13.7519706]},"properties":{"name":"Cajamarca Sala de Recepciones","kind":"restaurant","opening_hours":"","cuisine":"","phone":"","website":"","email":"","stars":"","rooms":"","internet_access":"","wheelchair":"","outdoor_seating":"","takeaway":"","delivery":"","payment":"","source":"OpenStreetMap","availability":"Consultar directamente con el establecimiento"}},{"type":"Feature","geometry":{"type":"Point","coordinates":[-89.2715842,13.761954]},"properties":{"name":"Café San Fernando","kind":"restaurant","opening_hours":"","cuisine":"","phone":"","website":"","email":"","stars":"","rooms":"","internet_access":"","wheelchair":"","outdoor_seating":"","takeaway":"","delivery":"","payment":"","source":"OpenStreetMap","availability":"Consultar directamente con el establecimiento"}},{"type":"Feature","geometry":{"type":"Point","coordinates":[-89.2708922,13.769113]},"properties":{"name":"Cafe Miranda","kind":"restaurant","opening_hours":"","cuisine":"","phone":"","website":"","email":"","stars":"","rooms":"","internet_access":"","wheelchair":"","outdoor_seating":"","takeaway":"","delivery":"","payment":"","source":"OpenStreetMap","availability":"Consultar directamente con el establecimiento"}},{"type":"Feature","geometry":{"type":"Point","coordinates":[-89.2204074,13.6726042]},"properties":{"name":"Puerto Mariscos","kind":"restaurant","opening_hours":"","cuisine":"","phone":"","website":"","email":"","stars":"","rooms":"","internet_access":"","wheelchair":"","outdoor_seating":"","takeaway":"","delivery":"","payment":"","source":"OpenStreetMap","availability":"Consultar directamente con el establecimiento"}},{"type":"Feature","geometry":{"type":"Point","coordinates":[-89.2225863,13.6835519]},"properties":{"name":"China Wok","kind":"fast_food","opening_hours":"","cuisine":"chinese","phone":"","website":"","email":"","stars":"","rooms":"","internet_access":"","wheelchair":"","outdoor_seating":"","takeaway":"yes","delivery":"","payment":"","source":"OpenStreetMap","availability":"Consultar directamente con el establecimiento"}},{"type":"Feature","geometry":{"type":"Point","coordinates":[-89.2326649,13.6835089]},"properties":{"name":"Tacos los Proceres","kind":"restaurant","opening_hours":"","cuisine":"","phone":"","website":"","email":"","stars":"","rooms":"","internet_access":"","wheelchair":"","outdoor_seating":"","takeaway":"","delivery":"","payment":"","source":"OpenStreetMap","availability":"Consultar directamente con el establecimiento"}},{"type":"Feature","geometry":{"type":"Point","coordinates":[-89.2406522,13.6799621]},"properties":{"name":"Subway La Sultana","kind":"fast_food","opening_hours":"","cuisine":"","phone":"","website":"","email":"","stars":"","rooms":"","internet_access":"","wheelchair":"","outdoor_seating":"","takeaway":"","delivery":"","payment":"","source":"OpenStreetMap","availability":"Consultar directamente con el establecimiento"}},{"type":"Feature","geometry":{"type":"Point","coordinates":[-89.2407649,13.6800559]},"properties":{"name":"Restaurante la Sultana","kind":"restaurant","opening_hours":"","cuisine":"","phone":"","website":"","email":"","stars":"","rooms":"","internet_access":"","wheelchair":"","outdoor_seating":"","takeaway":"","delivery":"","payment":"","source":"OpenStreetMap","availability":"Consultar directamente con el establecimiento"}},{"type":"Feature","geometry":{"type":"Point","coordinates":[-89.238793,13.6815639]},"properties":{"name":"Cafe en el taller","kind":"cafe","opening_hours":"","cuisine":"","phone":"","website":"","email":"","stars":"","rooms":"","internet_access":"","wheelchair":"","outdoor_seating":"","takeaway":"","delivery":"","payment":"","source":"OpenStreetMap","availability":"Consultar directamente con el establecimiento"}},{"type":"Feature","geometry":{"type":"Point","coordinates":[-89.2194978,13.6843443]},"properties":{"name":"Pupuseria Los proceres","kind":"restaurant","opening_hours":"","cuisine":"","phone":"","website":"","email":"","stars":"","rooms":"","internet_access":"","wheelchair":"","outdoor_seating":"","takeaway":"","delivery":"","payment":"","source":"OpenStreetMap","availability":"Consultar directamente con el establecimiento"}},{"type":"Feature","geometry":{"type":"Point","coordinates":[-89.2998266,13.6734687]},"properties":{"name":"Sin nombre","kind":"hotel","opening_hours":"","cuisine":"","phone":"","website":"","email":"","stars":"","rooms":"","internet_access":"","wheelchair":"","outdoor_seating":"","takeaway":"","delivery":"","payment":"","source":"OpenStreetMap","availability":"Consultar directamente con el establecimiento"}},{"type":"Feature","geometry":{"type":"Point","coordinates":[-89.3022901,13.5278683]},"properties":{"name":"La Posada","kind":"restaurant","opening_hours":"","cuisine":"","phone":"","website":"","email":"","stars":"","rooms":"","internet_access":"","wheelchair":"","outdoor_seating":"","takeaway":"","delivery":"","payment":"","source":"OpenStreetMap","availability":"Consultar directamente con el establecimiento"}},{"type":"Feature","geometry":{"type":"Point","coordinates":[-90.0370602,13.7057969]},"properties":{"name":"Ramada de la Barra","kind":"restaurant","opening_hours":"","cuisine":"","phone":"","website":"","email":"","stars":"","rooms":"","internet_access":"","wheelchair":"","outdoor_seating":"","takeaway":"","delivery":"","payment":"","source":"OpenStreetMap","availability":"Consultar directamente con el establecimiento"}},{"type":"Feature","geometry":{"type":"Point","coordinates":[-89.4413685,13.4953881]},"properties":{"name":"Olas Permanentes","kind":"hotel","opening_hours":"","cuisine":"pizza;sandwich","phone":"+503 2103 3145","website":"https://olaspermanentes.surf/restaurantes/el-zonte/","email":"info@olaspermanentes.surf","stars":"","rooms":"","internet_access":"","wheelchair":"","outdoor_seating":"","takeaway":"","delivery":"","payment":"","source":"OpenStreetMap","availability":"Consultar directamente con el establecimiento"}},{"type":"Feature","geometry":{"type":"Point","coordinates":[-89.3893347,13.4941881]},"properties":{"name":"Paraiso Azul Resort","kind":"hotel","opening_hours":"","cuisine":"","phone":"","website":"","email":"","stars":"","rooms":"","internet_access":"","wheelchair":"","outdoor_seating":"","takeaway":"","delivery":"","payment":"","source":"OpenStreetMap","availability":"Consultar directamente con el establecimiento"}},{"type":"Feature","geometry":{"type":"Point","coordinates":[-89.4354366,13.4955454]},"properties":{"name":"Hotel El Zonte","kind":"hotel","opening_hours":"","cuisine":"","phone":"","website":"","email":"","stars":"","rooms":"","internet_access":"","wheelchair":"","outdoor_seating":"","takeaway":"","delivery":"","payment":"","source":"OpenStreetMap","availability":"Consultar directamente con el establecimiento"}},{"type":"Feature","geometry":{"type":"Point","coordinates":[-89.3900322,13.4936258]},"properties":{"name":"Cafe Sunzal","kind":"restaurant","opening_hours":"","cuisine":"","phone":"","website":"","email":"","stars":"","rooms":"","internet_access":"","wheelchair":"","outdoor_seating":"","takeaway":"","delivery":"","payment":"","source":"OpenStreetMap","availability":"Consultar directamente con el establecimiento"}},{"type":"Feature","geometry":{"type":"Point","coordinates":[-89.4361769,13.4953263]},"properties":{"name":"Punta Gara","kind":"hotel","opening_hours":"","cuisine":"","phone":"","website":"","email":"","stars":"","rooms":"","internet_access":"","wheelchair":"","outdoor_seating":"","takeaway":"","delivery":"","payment":"","source":"OpenStreetMap","availability":"Consultar directamente con el establecimiento"}},{"type":"Feature","geometry":{"type":"Point","coordinates":[-89.4362696,13.4958213]},"properties":{"name":"Villa Bendición","kind":"hotel","opening_hours":"","cuisine":"","phone":"","website":"","email":"","stars":"","rooms":"","internet_access":"","wheelchair":"","outdoor_seating":"","takeaway":"","delivery":"","payment":"","source":"OpenStreetMap","availability":"Consultar directamente con el establecimiento"}},{"type":"Feature","geometry":{"type":"Point","coordinates":[-89.4386343,13.4954823]},"properties":{"name":"Canegue Café","kind":"restaurant","opening_hours":"","cuisine":"","phone":"","website":"","email":"","stars":"","rooms":"","internet_access":"","wheelchair":"","outdoor_seating":"","takeaway":"","delivery":"","payment":"","source":"OpenStreetMap","availability":"Consultar directamente con el establecimiento"}},{"type":"Feature","geometry":{"type":"Point","coordinates":[-89.4394311,13.4951641]},"properties":{"name":"Esencia Nativa","kind":"hotel","opening_hours":"","cuisine":"","phone":"+503 7737-8879","website":"https://esencianativa.com/","email":"reservaciones.esencianativa@gmail.com","stars":"","rooms":"","internet_access":"","wheelchair":"","outdoor_seating":"","takeaway":"","delivery":"","payment":"","source":"OpenStreetMap","availability":"Consultar directamente con el establecimiento"}},{"type":"Feature","geometry":{"type":"Point","coordinates":[-89.3853523,13.4932165]},"properties":{"name":"La Bocana","kind":"restaurant","opening_hours":"Mo-Su 07:30-23:00","cuisine":"local;iinternational;seafood","phone":"+50325083442","website":"","email":"","stars":"","rooms":"","internet_access":"","wheelchair":"","outdoor_seating":"","takeaway":"","delivery":"","payment":"","source":"OpenStreetMap","availability":"Consultar directamente con el establecimiento"}},{"type":"Feature","geometry":{"type":"Point","coordinates":[-89.3845564,13.4931554]},"properties":{"name":"Thekla, El Tunco","kind":"bar","opening_hours":"","cuisine":"fine_dining","phone":"","website":"","email":"","stars":"","rooms":"","internet_access":"","wheelchair":"","outdoor_seating":"","takeaway":"","delivery":"","payment":"","source":"OpenStreetMap","availability":"Consultar directamente con el establecimiento"}},{"type":"Feature","geometry":{"type":"Point","coordinates":[-89.3829309,13.494329]},"properties":{"name":"Hp Bar","kind":"bar","opening_hours":"","cuisine":"","phone":"","website":"","email":"","stars":"","rooms":"","internet_access":"","wheelchair":"","outdoor_seating":"","takeaway":"","delivery":"","payment":"","source":"OpenStreetMap","availability":"Consultar directamente con el establecimiento"}},{"type":"Feature","geometry":{"type":"Point","coordinates":[-89.3848117,13.4931543]},"properties":{"name":"La Guitarra","kind":"bar","opening_hours":"","cuisine":"","phone":"","website":"","email":"","stars":"","rooms":"","internet_access":"","wheelchair":"","outdoor_seating":"","takeaway":"","delivery":"","payment":"","source":"OpenStreetMap","availability":"Consultar directamente con el establecimiento"}},{"type":"Feature","geometry":{"type":"Point","coordinates":[-89.3796586,13.4942766]},"properties":{"name":"Qi-x la Fabrica (surfshop/hotel)","kind":"hotel","opening_hours":"","cuisine":"","phone":"","website":"","email":"","stars":"","rooms":"","internet_access":"","wheelchair":"","outdoor_seating":"","takeaway":"","delivery":"","payment":"","source":"OpenStreetMap","availability":"Consultar directamente con el establecimiento"}},{"type":"Feature","geometry":{"type":"Point","coordinates":[-89.3841947,13.4945288]},"properties":{"name":"Antorcha Bohemia","kind":"bar","opening_hours":"","cuisine":"","phone":"","website":"","email":"","stars":"","rooms":"","internet_access":"","wheelchair":"","outdoor_seating":"","takeaway":"","delivery":"","payment":"","source":"OpenStreetMap","availability":"Consultar directamente con el establecimiento"}},{"type":"Feature","geometry":{"type":"Point","coordinates":[-89.3837334,13.4956216]},"properties":{"name":"Pupuseria La Guanaquita","kind":"restaurant","opening_hours":"","cuisine":"","phone":"","website":"","email":"","stars":"","rooms":"","internet_access":"","wheelchair":"","outdoor_seating":"","takeaway":"","delivery":"","payment":"","source":"OpenStreetMap","availability":"Consultar directamente con el establecimiento"}},{"type":"Feature","geometry":{"type":"Point","coordinates":[-89.3833419,13.4930946]},"properties":{"name":"Tortuga Surf Lodge","kind":"hotel","opening_hours":"","cuisine":"","phone":"","website":"","email":"","stars":"","rooms":"","internet_access":"","wheelchair":"","outdoor_seating":"","takeaway":"","delivery":"","payment":"","source":"OpenStreetMap","availability":"Consultar directamente con el establecimiento"}},{"type":"Feature","geometry":{"type":"Point","coordinates":[-89.3813138,13.4934097]},"properties":{"name":"Hotel Pupa","kind":"hotel","opening_hours":"","cuisine":"","phone":"","website":"","email":"","stars":"","rooms":"","internet_access":"","wheelchair":"","outdoor_seating":"","takeaway":"","delivery":"","payment":"","source":"OpenStreetMap","availability":"Consultar directamente con el establecimiento"}},{"type":"Feature","geometry":{"type":"Point","coordinates":[-89.3835799,13.4940586]},"properties":{"name":"Good Friends","kind":"restaurant","opening_hours":"","cuisine":"","phone":"","website":"","email":"","stars":"","rooms":"","internet_access":"","wheelchair":"","outdoor_seating":"","takeaway":"","delivery":"","payment":"","source":"OpenStreetMap","availability":"Consultar directamente con el establecimiento"}},{"type":"Feature","geometry":{"type":"Point","coordinates":[-89.3850556,13.4935897]},"properties":{"name":"Cristy Burgers","kind":"fast_food","opening_hours":"","cuisine":"","phone":"","website":"","email":"","stars":"","rooms":"","internet_access":"","wheelchair":"","outdoor_seating":"","takeaway":"","delivery":"","payment":"","source":"OpenStreetMap","availability":"Consultar directamente con el establecimiento"}},{"type":"Feature","geometry":{"type":"Point","coordinates":[-89.3789398,13.4944175]},"properties":{"name":"Barlovento","kind":"bar","opening_hours":"","cuisine":"","phone":"","website":"","email":"","stars":"","rooms":"","internet_access":"","wheelchair":"","outdoor_seating":"","takeaway":"","delivery":"","payment":"","source":"OpenStreetMap","availability":"Consultar directamente con el establecimiento"}},{"type":"Feature","geometry":{"type":"Point","coordinates":[-89.3843665,13.4950478]},"properties":{"name":"The Carp House","kind":"hotel","opening_hours":"","cuisine":"","phone":"","website":"","email":"","stars":"","rooms":"","internet_access":"","wheelchair":"","outdoor_seating":"","takeaway":"","delivery":"","payment":"","source":"OpenStreetMap","availability":"Consultar directamente con el establecimiento"}},{"type":"Feature","geometry":{"type":"Point","coordinates":[-89.3829681,13.4938659]},"properties":{"name":"La Sombra Hostel","kind":"hotel","opening_hours":"","cuisine":"","phone":"","website":"","email":"","stars":"","rooms":"","internet_access":"","wheelchair":"","outdoor_seating":"","takeaway":"","delivery":"","payment":"","source":"OpenStreetMap","availability":"Consultar directamente con el establecimiento"}},{"type":"Feature","geometry":{"type":"Point","coordinates":[-89.3829502,13.492857]},"properties":{"name":"Casa Miramar","kind":"hotel","opening_hours":"","cuisine":"","phone":"","website":"","email":"","stars":"","rooms":"","internet_access":"","wheelchair":"","outdoor_seating":"","takeaway":"","delivery":"","payment":"","source":"OpenStreetMap","availability":"Consultar directamente con el establecimiento"}},{"type":"Feature","geometry":{"type":"Point","coordinates":[-89.3851912,13.4935129]},"properties":{"name":"Restaurante Erika","kind":"restaurant","opening_hours":"","cuisine":"local;international","phone":"","website":"","email":"","stars":"","rooms":"","internet_access":"","wheelchair":"","outdoor_seating":"","takeaway":"","delivery":"","payment":"","source":"OpenStreetMap","availability":"Consultar directamente con el establecimiento"}},{"type":"Feature","geometry":{"type":"Point","coordinates":[-89.3833687,13.4936759]},"properties":{"name":"Hotel Mopelia","kind":"hotel","opening_hours":"","cuisine":"","phone":"","website":"","email":"","stars":"","rooms":"","internet_access":"wlan","wheelchair":"","outdoor_seating":"","takeaway":"","delivery":"","payment":"","source":"OpenStreetMap","availability":"Consultar directamente con el establecimiento"}},{"type":"Feature","geometry":{"type":"Point","coordinates":[-89.3830974,13.4935418]},"properties":{"name":"Casa Makoi","kind":"hotel","opening_hours":"","cuisine":"","phone":"","website":"","email":"","stars":"","rooms":"","internet_access":"","wheelchair":"","outdoor_seating":"","takeaway":"","delivery":"","payment":"","source":"OpenStreetMap","availability":"Consultar directamente con el establecimiento"}},{"type":"Feature","geometry":{"type":"Point","coordinates":[-89.3827807,13.4940526]},"properties":{"name":"Tekuani Kal","kind":"restaurant","opening_hours":"","cuisine":"","phone":"","website":"","email":"","stars":"","rooms":"","internet_access":"","wheelchair":"","outdoor_seating":"","takeaway":"","delivery":"","payment":"","source":"OpenStreetMap","availability":"Consultar directamente con el establecimiento"}},{"type":"Feature","geometry":{"type":"Point","coordinates":[-89.3848868,13.4940567]},"properties":{"name":"Burritos El Chef","kind":"restaurant","opening_hours":"","cuisine":"","phone":"","website":"","email":"","stars":"","rooms":"","internet_access":"","wheelchair":"","outdoor_seating":"","takeaway":"","delivery":"","payment":"","source":"OpenStreetMap","availability":"Consultar directamente con el establecimiento"}},{"type":"Feature","geometry":{"type":"Point","coordinates":[-89.3830811,13.4931919]},"properties":{"name":"Tekuani Kal","kind":"hotel","opening_hours":"","cuisine":"","phone":"","website":"","email":"","stars":"","rooms":"","internet_access":"","wheelchair":"","outdoor_seating":"","takeaway":"","delivery":"","payment":"","source":"OpenStreetMap","availability":"Consultar directamente con el establecimiento"}},{"type":"Feature","geometry":{"type":"Point","coordinates":[-89.3842886,13.4944715]},"properties":{"name":"Papaya's Lodge","kind":"hotel","opening_hours":"","cuisine":"","phone":"","website":"","email":"","stars":"","rooms":"","internet_access":"yes","wheelchair":"","outdoor_seating":"","takeaway":"","delivery":"","payment":"","source":"OpenStreetMap","availability":"Consultar directamente con el establecimiento"}},{"type":"Feature","geometry":{"type":"Point","coordinates":[-89.3811746,13.4939524]},"properties":{"name":"K59","kind":"restaurant","opening_hours":"","cuisine":"","phone":"","website":"","email":"","stars":"","rooms":"","internet_access":"","wheelchair":"","outdoor_seating":"","takeaway":"","delivery":"","payment":"","source":"OpenStreetMap","availability":"Consultar directamente con el establecimiento"}},{"type":"Feature","geometry":{"type":"Point","coordinates":[-89.3846024,13.493942]},"properties":{"name":"Hotel La Guitarra","kind":"hotel","opening_hours":"","cuisine":"","phone":"","website":"","email":"","stars":"","rooms":"","internet_access":"yes","wheelchair":"","outdoor_seating":"","takeaway":"","delivery":"","payment":"","source":"OpenStreetMap","availability":"Consultar directamente con el establecimiento"}},{"type":"Feature","geometry":{"type":"Point","coordinates":[-89.3789428,13.4940513]},"properties":{"name":"Hotel Barlovento","kind":"hotel","opening_hours":"","cuisine":"","phone":"","website":"","email":"","stars":"","rooms":"","internet_access":"","wheelchair":"","outdoor_seating":"","takeaway":"","delivery":"","payment":"","source":"OpenStreetMap","availability":"Consultar directamente con el establecimiento"}},{"type":"Feature","geometry":{"type":"Point","coordinates":[-89.2228274,13.6833207]},"properties":{"name":"Panes Coyo","kind":"restaurant","opening_hours":"","cuisine":"","phone":"","website":"","email":"","stars":"","rooms":"","internet_access":"","wheelchair":"","outdoor_seating":"","takeaway":"","delivery":"","payment":"","source":"OpenStreetMap","availability":"Consultar directamente con el establecimiento"}},{"type":"Feature","geometry":{"type":"Point","coordinates":[-89.2227308,13.6834484]},"properties":{"name":"Pizza Hut","kind":"restaurant","opening_hours":"","cuisine":"pizza","phone":"","website":"","email":"","stars":"","rooms":"","internet_access":"","wheelchair":"","outdoor_seating":"","takeaway":"only","delivery":"yes","payment":"","source":"OpenStreetMap","availability":"Consultar directamente con el establecimiento"}},{"type":"Feature","geometry":{"type":"Point","coordinates":[-89.2236844,13.6822956]},"properties":{"name":"Comedor economico","kind":"restaurant","opening_hours":"","cuisine":"","phone":"","website":"","email":"","stars":"","rooms":"","internet_access":"","wheelchair":"","outdoor_seating":"","takeaway":"","delivery":"","payment":"","source":"OpenStreetMap","availability":"Consultar directamente con el establecimiento"}},{"type":"Feature","geometry":{"type":"Point","coordinates":[-89.2232994,13.6825102]},"properties":{"name":"Chalet de Comida","kind":"restaurant","opening_hours":"","cuisine":"","phone":"","website":"","email":"","stars":"","rooms":"","internet_access":"","wheelchair":"","outdoor_seating":"","takeaway":"","delivery":"","payment":"","source":"OpenStreetMap","availability":"Consultar directamente con el establecimiento"}},{"type":"Feature","geometry":{"type":"Point","coordinates":[-89.2233262,13.6826537]},"properties":{"name":"La Neveria","kind":"restaurant","opening_hours":"","cuisine":"","phone":"","website":"","email":"","stars":"","rooms":"","internet_access":"","wheelchair":"","outdoor_seating":"","takeaway":"","delivery":"","payment":"","source":"OpenStreetMap","availability":"Consultar directamente con el establecimiento"}},{"type":"Feature","geometry":{"type":"Point","coordinates":[-89.2270951,13.6751917]},"properties":{"name":"Panes Migueleños","kind":"restaurant","opening_hours":"","cuisine":"","phone":"","website":"","email":"","stars":"","rooms":"","internet_access":"","wheelchair":"","outdoor_seating":"","takeaway":"","delivery":"","payment":"","source":"OpenStreetMap","availability":"Consultar directamente con el establecimiento"}},{"type":"Feature","geometry":{"type":"Point","coordinates":[-89.2405536,13.6799093]},"properties":{"name":"Mug Coffee","kind":"cafe","opening_hours":"","cuisine":"","phone":"","website":"","email":"","stars":"","rooms":"","internet_access":"","wheelchair":"","outdoor_seating":"","takeaway":"","delivery":"","payment":"","source":"OpenStreetMap","availability":"Consultar directamente con el establecimiento"}},{"type":"Feature","geometry":{"type":"Point","coordinates":[-89.240396,13.679952]},"properties":{"name":"Comida China La Sultana","kind":"restaurant","opening_hours":"","cuisine":"","phone":"","website":"","email":"","stars":"","rooms":"","internet_access":"","wheelchair":"","outdoor_seating":"","takeaway":"","delivery":"","payment":"","source":"OpenStreetMap","availability":"Consultar directamente con el establecimiento"}},{"type":"Feature","geometry":{"type":"Point","coordinates":[-89.2134824,13.6973058]},"properties":{"name":"Emerald Hotel","kind":"hotel","opening_hours":"","cuisine":"","phone":"","website":"","email":"","stars":"","rooms":"","internet_access":"","wheelchair":"","outdoor_seating":"","takeaway":"","delivery":"","payment":"","source":"OpenStreetMap","availability":"Consultar directamente con el establecimiento"}},{"type":"Feature","geometry":{"type":"Point","coordinates":[-89.2140878,13.6975824]},"properties":{"name":"Hotel Nueva Villa Santander","kind":"hotel","opening_hours":"","cuisine":"","phone":"","website":"","email":"","stars":"","rooms":"","internet_access":"","wheelchair":"","outdoor_seating":"","takeaway":"","delivery":"","payment":"","source":"OpenStreetMap","availability":"Consultar directamente con el establecimiento"}},{"type":"Feature","geometry":{"type":"Point","coordinates":[-89.209638,13.6995551]},"properties":{"name":"Carnitas en la calle","kind":"restaurant","opening_hours":"","cuisine":"","phone":"","website":"","email":"","stars":"","rooms":"","internet_access":"","wheelchair":"","outdoor_seating":"","takeaway":"","delivery":"","payment":"","source":"OpenStreetMap","availability":"Consultar directamente con el establecimiento"}},{"type":"Feature","geometry":{"type":"Point","coordinates":[-89.2140153,13.6981323]},"properties":{"name":"Hostal Portada","kind":"hotel","opening_hours":"","cuisine":"","phone":"","website":"","email":"","stars":"","rooms":"","internet_access":"","wheelchair":"","outdoor_seating":"","takeaway":"","delivery":"","payment":"","source":"OpenStreetMap","availability":"Consultar directamente con el establecimiento"}},{"type":"Feature","geometry":{"type":"Point","coordinates":[-89.222411,13.699706]},"properties":{"name":"Pizza Nova","kind":"restaurant","opening_hours":"","cuisine":"","phone":"","website":"","email":"","stars":"","rooms":"","internet_access":"","wheelchair":"","outdoor_seating":"","takeaway":"","delivery":"","payment":"","source":"OpenStreetMap","availability":"Consultar directamente con el establecimiento"}},{"type":"Feature","geometry":{"type":"Point","coordinates":[-89.222253,13.7007509]},"properties":{"name":"Mister Donut","kind":"restaurant","opening_hours":"","cuisine":"regional","phone":"","website":"","email":"","stars":"","rooms":"","internet_access":"","wheelchair":"","outdoor_seating":"","takeaway":"","delivery":"","payment":"","source":"OpenStreetMap","availability":"Consultar directamente con el establecimiento"}},{"type":"Feature","geometry":{"type":"Point","coordinates":[-89.2266333,13.7111954]},"properties":{"name":"Auto Hotel Constitucion","kind":"motel","opening_hours":"","cuisine":"","phone":"","website":"","email":"","stars":"","rooms":"","internet_access":"","wheelchair":"","outdoor_seating":"","takeaway":"","delivery":"","payment":"","source":"OpenStreetMap","availability":"Consultar directamente con el establecimiento"}},{"type":"Feature","geometry":{"type":"Point","coordinates":[-89.2247451,13.7168889]},"properties":{"name":"Motel","kind":"motel","opening_hours":"","cuisine":"","phone":"","website":"","email":"","stars":"","rooms":"","internet_access":"","wheelchair":"","outdoor_seating":"","takeaway":"","delivery":"","payment":"","source":"OpenStreetMap","availability":"Consultar directamente con el establecimiento"}},{"type":"Feature","geometry":{"type":"Point","coordinates":[-89.314752,13.486481]},"properties":{"name":"Restaurant Betas","kind":"restaurant","opening_hours":"","cuisine":"","phone":"","website":"","email":"","stars":"","rooms":"","internet_access":"","wheelchair":"","outdoor_seating":"","takeaway":"","delivery":"","payment":"","source":"OpenStreetMap","availability":"Consultar directamente con el establecimiento"}},{"type":"Feature","geometry":{"type":"Point","coordinates":[-89.3081896,13.4863157]},"properties":{"name":"Restaurante El Mirador Del Pacifico","kind":"restaurant","opening_hours":"","cuisine":"","phone":"","website":"","email":"","stars":"","rooms":"","internet_access":"","wheelchair":"","outdoor_seating":"","takeaway":"","delivery":"","payment":"","source":"OpenStreetMap","availability":"Consultar directamente con el establecimiento"}},{"type":"Feature","geometry":{"type":"Point","coordinates":[-89.3221141,13.4864237]},"properties":{"name":"El Delfin II","kind":"restaurant","opening_hours":"","cuisine":"","phone":"","website":"","email":"","stars":"","rooms":"","internet_access":"","wheelchair":"","outdoor_seating":"","takeaway":"","delivery":"","payment":"","source":"OpenStreetMap","availability":"Consultar directamente con el establecimiento"}},{"type":"Feature","geometry":{"type":"Point","coordinates":[-89.3237233,13.485641]},"properties":{"name":"Vista Al Mar","kind":"restaurant","opening_hours":"","cuisine":"","phone":"","website":"","email":"","stars":"","rooms":"","internet_access":"","wheelchair":"","outdoor_seating":"","takeaway":"","delivery":"","payment":"","source":"OpenStreetMap","availability":"Consultar directamente con el establecimiento"}},{"type":"Feature","geometry":{"type":"Point","coordinates":[-89.3236525,13.4862969]},"properties":{"name":"Restaurante Punta Roca","kind":"restaurant","opening_hours":"","cuisine":"","phone":"","website":"","email":"","stars":"","rooms":"","internet_access":"","wheelchair":"","outdoor_seating":"","takeaway":"","delivery":"","payment":"","source":"OpenStreetMap","availability":"Consultar directamente con el establecimiento"}},{"type":"Feature","geometry":{"type":"Point","coordinates":[-89.3145625,13.4864618]},"properties":{"name":"Restaurante La Marea","kind":"restaurant","opening_hours":"","cuisine":"","phone":"","website":"","email":"","stars":"","rooms":"","internet_access":"","wheelchair":"","outdoor_seating":"","takeaway":"","delivery":"","payment":"","source":"OpenStreetMap","availability":"Consultar directamente con el establecimiento"}},{"type":"Feature","geometry":{"type":"Point","coordinates":[-89.3087153,13.4862061]},"properties":{"name":"Restaurante La Punta","kind":"restaurant","opening_hours":"","cuisine":"","phone":"","website":"","email":"","stars":"","rooms":"","internet_access":"","wheelchair":"","outdoor_seating":"","takeaway":"","delivery":"","payment":"","source":"OpenStreetMap","availability":"Consultar directamente con el establecimiento"}},{"type":"Feature","geometry":{"type":"Point","coordinates":[-89.313864,13.4863947]},"properties":{"name":"Restaurante Olas","kind":"restaurant","opening_hours":"","cuisine":"","phone":"","website":"","email":"","stars":"","rooms":"","internet_access":"","wheelchair":"","outdoor_seating":"","takeaway":"","delivery":"","payment":"","source":"OpenStreetMap","availability":"Consultar directamente con el establecimiento"}},{"type":"Feature","geometry":{"type":"Point","coordinates":[-89.314423,13.4864461]},"properties":{"name":"Restaurante Perla Del Mar","kind":"restaurant","opening_hours":"","cuisine":"","phone":"","website":"","email":"","stars":"","rooms":"","internet_access":"","wheelchair":"","outdoor_seating":"","takeaway":"","delivery":"","payment":"","source":"OpenStreetMap","availability":"Consultar directamente con el establecimiento"}},{"type":"Feature","geometry":{"type":"Point","coordinates":[-89.3174592,13.4874138]},"properties":{"name":"Restaurante y Hotel El Malecón","kind":"hotel","opening_hours":"","cuisine":"","phone":"","website":"","email":"","stars":"","rooms":"","internet_access":"","wheelchair":"","outdoor_seating":"","takeaway":"","delivery":"","payment":"","source":"OpenStreetMap","availability":"Consultar directamente con el establecimiento"}},{"type":"Feature","geometry":{"type":"Point","coordinates":[-89.314128,13.4864096]},"properties":{"name":"Restaurante de la Llanta","kind":"restaurant","opening_hours":"","cuisine":"","phone":"","website":"","email":"","stars":"","rooms":"","internet_access":"","wheelchair":"","outdoor_seating":"","takeaway":"","delivery":"","payment":"","source":"OpenStreetMap","availability":"Consultar directamente con el establecimiento"}},{"type":"Feature","geometry":{"type":"Point","coordinates":[-89.3128054,13.4868382]},"properties":{"name":"La Neveria La Libertad","kind":"restaurant","opening_hours":"","cuisine":"","phone":"","website":"","email":"","stars":"","rooms":"","internet_access":"","wheelchair":"","outdoor_seating":"","takeaway":"","delivery":"","payment":"","source":"OpenStreetMap","availability":"Consultar directamente con el establecimiento"}},{"type":"Feature","geometry":{"type":"Point","coordinates":[-89.3170194,13.4869625]},"properties":{"name":"Restaurante Club De Playa Mannys","kind":"restaurant","opening_hours":"","cuisine":"","phone":"","website":"","email":"","stars":"","rooms":"","internet_access":"","wheelchair":"","outdoor_seating":"","takeaway":"","delivery":"","payment":"","source":"OpenStreetMap","availability":"Consultar directamente con el establecimiento"}},{"type":"Feature","geometry":{"type":"Point","coordinates":[-89.3142514,13.4864305]},"properties":{"name":"Restaurante Fredy","kind":"restaurant","opening_hours":"","cuisine":"","phone":"","website":"","email":"","stars":"","rooms":"","internet_access":"","wheelchair":"","outdoor_seating":"","takeaway":"","delivery":"","payment":"","source":"OpenStreetMap","availability":"Consultar directamente con el establecimiento"}},{"type":"Feature","geometry":{"type":"Point","coordinates":[-89.3237199,13.4857392]},"properties":{"name":"Restaurante El Delfin","kind":"restaurant","opening_hours":"","cuisine":"","phone":"","website":"","email":"","stars":"","rooms":"","internet_access":"","wheelchair":"","outdoor_seating":"","takeaway":"","delivery":"","payment":"","source":"OpenStreetMap","availability":"Consultar directamente con el establecimiento"}},{"type":"Feature","geometry":{"type":"Point","coordinates":[-89.3224962,13.4863731]},"properties":{"name":"Hotel Renacer","kind":"hotel","opening_hours":"","cuisine":"","phone":"","website":"","email":"","stars":"","rooms":"","internet_access":"","wheelchair":"","outdoor_seating":"","takeaway":"","delivery":"","payment":"","source":"OpenStreetMap","availability":"Consultar directamente con el establecimiento"}},{"type":"Feature","geometry":{"type":"Point","coordinates":[-89.3078838,13.4863992]},"properties":{"name":"La Curva de Don Gere","kind":"restaurant","opening_hours":"","cuisine":"","phone":"","website":"","email":"","stars":"","rooms":"","internet_access":"","wheelchair":"","outdoor_seating":"","takeaway":"","delivery":"","payment":"","source":"OpenStreetMap","availability":"Consultar directamente con el establecimiento"}},{"type":"Feature","geometry":{"type":"Point","coordinates":[-89.3049334,13.4877137]},"properties":{"name":"La Ramada 1","kind":"restaurant","opening_hours":"","cuisine":"","phone":"","website":"","email":"","stars":"","rooms":"","internet_access":"","wheelchair":"","outdoor_seating":"","takeaway":"","delivery":"","payment":"","source":"OpenStreetMap","availability":"Consultar directamente con el establecimiento"}},{"type":"Feature","geometry":{"type":"Point","coordinates":[-89.3136257,13.4866526]},"properties":{"name":"Hotel el Faro","kind":"hotel","opening_hours":"","cuisine":"","phone":"","website":"","email":"","stars":"","rooms":"","internet_access":"","wheelchair":"","outdoor_seating":"","takeaway":"","delivery":"","payment":"","source":"OpenStreetMap","availability":"Consultar directamente con el establecimiento"}},{"type":"Feature","geometry":{"type":"Point","coordinates":[-89.3123309,13.4870512]},"properties":{"name":"Comedor Xiomara","kind":"restaurant","opening_hours":"","cuisine":"","phone":"","website":"","email":"","stars":"","rooms":"","internet_access":"","wheelchair":"","outdoor_seating":"","takeaway":"","delivery":"","payment":"","source":"OpenStreetMap","availability":"Consultar directamente con el establecimiento"}},{"type":"Feature","geometry":{"type":"Point","coordinates":[-89.399787,13.4939682]},"properties":{"name":"Cadejo Brewing Company","kind":"restaurant","opening_hours":"","cuisine":"seafood;burger","phone":"","website":"https://cervezacadejo.com/","email":"","stars":"","rooms":"","internet_access":"","wheelchair":"","outdoor_seating":"","takeaway":"","delivery":"","payment":"","source":"OpenStreetMap","availability":"Consultar directamente con el establecimiento"}},{"type":"Feature","geometry":{"type":"Point","coordinates":[-89.4136599,13.4953192]},"properties":{"name":"Palma`s Mirador","kind":"restaurant","opening_hours":"","cuisine":"","phone":"","website":"","email":"","stars":"","rooms":"","internet_access":"","wheelchair":"","outdoor_seating":"","takeaway":"","delivery":"","payment":"","source":"OpenStreetMap","availability":"Consultar directamente con el establecimiento"}},{"type":"Feature","geometry":{"type":"Point","coordinates":[-89.4040007,13.4941899]},"properties":{"name":"Restaurante lo Nuestro","kind":"restaurant","opening_hours":"","cuisine":"","phone":"","website":"","email":"","stars":"","rooms":"","internet_access":"","wheelchair":"","outdoor_seating":"","takeaway":"","delivery":"","payment":"","source":"OpenStreetMap","availability":"Consultar directamente con el establecimiento"}},{"type":"Feature","geometry":{"type":"Point","coordinates":[-89.3219019,13.4865162]},"properties":{"name":"Hotel Y Restaurante La Terraza","kind":"restaurant","opening_hours":"","cuisine":"","phone":"","website":"","email":"","stars":"","rooms":"","internet_access":"","wheelchair":"","outdoor_seating":"","takeaway":"","delivery":"","payment":"","source":"OpenStreetMap","availability":"Consultar directamente con el establecimiento"}},{"type":"Feature","geometry":{"type":"Point","coordinates":[-89.8039516,13.8568813]},"properties":{"name":"Hostal en Apaneca","kind":"hotel","opening_hours":"","cuisine":"","phone":"","website":"","email":"","stars":"","rooms":"","internet_access":"","wheelchair":"","outdoor_seating":"","takeaway":"","delivery":"","payment":"","source":"OpenStreetMap","availability":"Consultar directamente con el establecimiento"}},{"type":"Feature","geometry":{"type":"Point","coordinates":[-89.7901275,13.8850669]},"properties":{"name":"Igloo hostal at Laguna Verde Guest House","kind":"hotel","opening_hours":"","cuisine":"","phone":"","website":"","email":"","stars":"","rooms":"","internet_access":"","wheelchair":"","outdoor_seating":"","takeaway":"","delivery":"","payment":"","source":"OpenStreetMap","availability":"Consultar directamente con el establecimiento"}},{"type":"Feature","geometry":{"type":"Point","coordinates":[-89.788811,13.8884674]},"properties":{"name":"Casa de Montaña \"Laguna Verde\"","kind":"hotel","opening_hours":"","cuisine":"","phone":"","website":"","email":"","stars":"","rooms":"","internet_access":"","wheelchair":"","outdoor_seating":"","takeaway":"","delivery":"","payment":"","source":"OpenStreetMap","availability":"Consultar directamente con el establecimiento"}},{"type":"Feature","geometry":{"type":"Point","coordinates":[-89.7435965,13.8463238]},"properties":{"name":"Hotel Juayúa","kind":"hotel","opening_hours":"","cuisine":"","phone":"","website":"","email":"","stars":"","rooms":"","internet_access":"","wheelchair":"","outdoor_seating":"","takeaway":"","delivery":"","payment":"","source":"OpenStreetMap","availability":"Consultar directamente con el establecimiento"}},{"type":"Feature","geometry":{"type":"Point","coordinates":[-89.74615,13.8425164]},"properties":{"name":"Pupuseria","kind":"restaurant","opening_hours":"","cuisine":"","phone":"","website":"","email":"","stars":"","rooms":"","internet_access":"","wheelchair":"","outdoor_seating":"","takeaway":"","delivery":"","payment":"","source":"OpenStreetMap","availability":"Consultar directamente con el establecimiento"}},{"type":"Feature","geometry":{"type":"Point","coordinates":[-89.7476574,13.8425476]},"properties":{"name":"La Fonda de Mama Lety","kind":"restaurant","opening_hours":"","cuisine":"","phone":"","website":"","email":"","stars":"","rooms":"","internet_access":"","wheelchair":"","outdoor_seating":"","takeaway":"","delivery":"","payment":"","source":"OpenStreetMap","availability":"Consultar directamente con el establecimiento"}},{"type":"Feature","geometry":{"type":"Point","coordinates":[-89.7434409,13.8434956]},"properties":{"name":"Pupusas","kind":"restaurant","opening_hours":"","cuisine":"","phone":"","website":"","email":"","stars":"","rooms":"","internet_access":"","wheelchair":"","outdoor_seating":"","takeaway":"","delivery":"","payment":"","source":"OpenStreetMap","availability":"Consultar directamente con el establecimiento"}},{"type":"Feature","geometry":{"type":"Point","coordinates":[-89.7433283,13.8446571]},"properties":{"name":"Apartamentos Sta Lucia","kind":"hotel","opening_hours":"","cuisine":"","phone":"","website":"","email":"","stars":"","rooms":"","internet_access":"","wheelchair":"","outdoor_seating":"","takeaway":"","delivery":"","payment":"","source":"OpenStreetMap","availability":"Consultar directamente con el establecimiento"}},{"type":"Feature","geometry":{"type":"Point","coordinates":[-89.7435911,13.8433185]},"properties":{"name":"Pupusas","kind":"restaurant","opening_hours":"","cuisine":"","phone":"","website":"","email":"","stars":"","rooms":"","internet_access":"","wheelchair":"","outdoor_seating":"","takeaway":"","delivery":"","payment":"","source":"OpenStreetMap","availability":"Consultar directamente con el establecimiento"}},{"type":"Feature","geometry":{"type":"Point","coordinates":[-89.7464343,13.8428497]},"properties":{"name":"Creps Lovers","kind":"restaurant","opening_hours":"","cuisine":"","phone":"","website":"","email":"","stars":"","rooms":"","internet_access":"","wheelchair":"","outdoor_seating":"","takeaway":"","delivery":"","payment":"","source":"OpenStreetMap","availability":"Consultar directamente con el establecimiento"}},{"type":"Feature","geometry":{"type":"Point","coordinates":[-89.7454687,13.8418913]},"properties":{"name":"Casa de Huéspedes Doña Mercedes","kind":"hotel","opening_hours":"","cuisine":"","phone":"","website":"","email":"","stars":"","rooms":"","internet_access":"","wheelchair":"","outdoor_seating":"","takeaway":"","delivery":"","payment":"","source":"OpenStreetMap","availability":"Consultar directamente con el establecimiento"}},{"type":"Feature","geometry":{"type":"Point","coordinates":[-89.7464128,13.8425736]},"properties":{"name":"Comedor y Pupusería El Comal","kind":"restaurant","opening_hours":"","cuisine":"","phone":"","website":"","email":"","stars":"","rooms":"","internet_access":"","wheelchair":"","outdoor_seating":"","takeaway":"","delivery":"","payment":"","source":"OpenStreetMap","availability":"Consultar directamente con el establecimiento"}},{"type":"Feature","geometry":{"type":"Point","coordinates":[-89.7458871,13.8432195]},"properties":{"name":"Comida a la Vista Laura","kind":"restaurant","opening_hours":"","cuisine":"","phone":"","website":"","email":"","stars":"","rooms":"","internet_access":"","wheelchair":"","outdoor_seating":"","takeaway":"","delivery":"","payment":"","source":"OpenStreetMap","availability":"Consultar directamente con el establecimiento"}},{"type":"Feature","geometry":{"type":"Point","coordinates":[-89.7478344,13.8445738]},"properties":{"name":"Hotel Juayúa","kind":"hotel","opening_hours":"","cuisine":"","phone":"","website":"","email":"","stars":"","rooms":"","internet_access":"","wheelchair":"","outdoor_seating":"","takeaway":"","delivery":"","payment":"","source":"OpenStreetMap","availability":"Consultar directamente con el establecimiento"}},{"type":"Feature","geometry":{"type":"Point","coordinates":[-89.7486444,13.8429539]},"properties":{"name":"Hotel y Restaurante el Mirador","kind":"hotel","opening_hours":"","cuisine":"","phone":"","website":"","email":"","stars":"","rooms":"","internet_access":"","wheelchair":"","outdoor_seating":"","takeaway":"","delivery":"","payment":"","source":"OpenStreetMap","availability":"Consultar directamente con el establecimiento"}},{"type":"Feature","geometry":{"type":"Point","coordinates":[-89.7582052,13.8294524]},"properties":{"name":"Restaurante Jimena","kind":"restaurant","opening_hours":"","cuisine":"","phone":"","website":"","email":"","stars":"","rooms":"","internet_access":"","wheelchair":"","outdoor_seating":"","takeaway":"","delivery":"","payment":"","source":"OpenStreetMap","availability":"Consultar directamente con el establecimiento"}},{"type":"Feature","geometry":{"type":"Point","coordinates":[-89.7577374,13.8282248]},"properties":{"name":"Retaurante","kind":"restaurant","opening_hours":"","cuisine":"","phone":"","website":"","email":"","stars":"","rooms":"","internet_access":"","wheelchair":"","outdoor_seating":"","takeaway":"","delivery":"","payment":"","source":"OpenStreetMap","availability":"Consultar directamente con el establecimiento"}},{"type":"Feature","geometry":{"type":"Point","coordinates":[-89.7574045,13.8292444]},"properties":{"name":"Alessandra Restaurat","kind":"restaurant","opening_hours":"","cuisine":"","phone":"","website":"","email":"","stars":"","rooms":"","internet_access":"","wheelchair":"","outdoor_seating":"","takeaway":"","delivery":"","payment":"","source":"OpenStreetMap","availability":"Consultar directamente con el establecimiento"}},{"type":"Feature","geometry":{"type":"Point","coordinates":[-89.7570666,13.8289423]},"properties":{"name":"Zelaya Restaurat","kind":"restaurant","opening_hours":"","cuisine":"","phone":"","website":"","email":"","stars":"","rooms":"","internet_access":"","wheelchair":"","outdoor_seating":"","takeaway":"","delivery":"","payment":"","source":"OpenStreetMap","availability":"Consultar directamente con el establecimiento"}},{"type":"Feature","geometry":{"type":"Point","coordinates":[-89.7570451,13.82926]},"properties":{"name":"Argueta Retaurat","kind":"restaurant","opening_hours":"","cuisine":"","phone":"","website":"","email":"","stars":"","rooms":"","internet_access":"","wheelchair":"","outdoor_seating":"","takeaway":"","delivery":"","payment":"","source":"OpenStreetMap","availability":"Consultar directamente con el establecimiento"}},{"type":"Feature","geometry":{"type":"Point","coordinates":[-89.7577157,13.8276713]},"properties":{"name":"Retaurante","kind":"restaurant","opening_hours":"","cuisine":"","phone":"","website":"","email":"","stars":"","rooms":"","internet_access":"","wheelchair":"","outdoor_seating":"","takeaway":"","delivery":"","payment":"","source":"OpenStreetMap","availability":"Consultar directamente con el establecimiento"}},{"type":"Feature","geometry":{"type":"Point","coordinates":[-89.7574582,13.8290152]},"properties":{"name":"Restaurante","kind":"restaurant","opening_hours":"","cuisine":"","phone":"","website":"","email":"","stars":"","rooms":"","internet_access":"","wheelchair":"","outdoor_seating":"","takeaway":"","delivery":"","payment":"","source":"OpenStreetMap","availability":"Consultar directamente con el establecimiento"}},{"type":"Feature","geometry":{"type":"Point","coordinates":[-89.8517348,13.8698371]},"properties":{"name":"Hostal Villa Santo Domingo","kind":"hotel","opening_hours":"","cuisine":"","phone":"","website":"","email":"","stars":"","rooms":"","internet_access":"","wheelchair":"","outdoor_seating":"","takeaway":"","delivery":"","payment":"","source":"OpenStreetMap","availability":"Consultar directamente con el establecimiento"}},{"type":"Feature","geometry":{"type":"Point","coordinates":[-89.8199163,13.8498445]},"properties":{"name":"Las Flores de Eloisa","kind":"restaurant","opening_hours":"","cuisine":"","phone":"","website":"","email":"","stars":"","rooms":"","internet_access":"","wheelchair":"","outdoor_seating":"","takeaway":"","delivery":"","payment":"","source":"OpenStreetMap","availability":"Consultar directamente con el establecimiento"}},{"type":"Feature","geometry":{"type":"Point","coordinates":[-89.8464946,13.8631203]},"properties":{"name":"Ingenio de Cafe","kind":"cafe","opening_hours":"","cuisine":"","phone":"","website":"","email":"","stars":"","rooms":"","internet_access":"","wheelchair":"","outdoor_seating":"","takeaway":"","delivery":"","payment":"","source":"OpenStreetMap","availability":"Consultar directamente con el establecimiento"}},{"type":"Feature","geometry":{"type":"Point","coordinates":[-89.8229851,13.8497989]},"properties":{"name":"La Posada","kind":"hotel","opening_hours":"","cuisine":"","phone":"","website":"","email":"","stars":"","rooms":"","internet_access":"","wheelchair":"","outdoor_seating":"","takeaway":"","delivery":"","payment":"","source":"OpenStreetMap","availability":"Consultar directamente con el establecimiento"}},{"type":"Feature","geometry":{"type":"Point","coordinates":[-89.8514354,13.8693181]},"properties":{"name":"Paletas las Chivas","kind":"fast_food","opening_hours":"","cuisine":"","phone":"","website":"","email":"","stars":"","rooms":"","internet_access":"","wheelchair":"","outdoor_seating":"","takeaway":"","delivery":"","payment":"","source":"OpenStreetMap","availability":"Consultar directamente con el establecimiento"}},{"type":"Feature","geometry":{"type":"Point","coordinates":[-89.8522508,13.8673989]},"properties":{"name":"Hostal Raices","kind":"hotel","opening_hours":"","cuisine":"","phone":"","website":"","email":"","stars":"","rooms":"","internet_access":"","wheelchair":"","outdoor_seating":"","takeaway":"","delivery":"","payment":"","source":"OpenStreetMap","availability":"Consultar directamente con el establecimiento"}},{"type":"Feature","geometry":{"type":"Point","coordinates":[-89.8517667,13.870534]},"properties":{"name":"La esquina de Ataco","kind":"restaurant","opening_hours":"","cuisine":"","phone":"","website":"","email":"","stars":"","rooms":"","internet_access":"","wheelchair":"","outdoor_seating":"","takeaway":"","delivery":"","payment":"","source":"OpenStreetMap","availability":"Consultar directamente con el establecimiento"}},{"type":"Feature","geometry":{"type":"Point","coordinates":[-89.8512259,13.8688328]},"properties":{"name":"Bar el Arky","kind":"bar","opening_hours":"","cuisine":"","phone":"","website":"","email":"","stars":"","rooms":"","internet_access":"","wheelchair":"","outdoor_seating":"","takeaway":"","delivery":"","payment":"","source":"OpenStreetMap","availability":"Consultar directamente con el establecimiento"}},{"type":"Feature","geometry":{"type":"Point","coordinates":[-89.8478091,13.864334]},"properties":{"name":"Ingenio de cafe restaurante El Carmen","kind":"restaurant","opening_hours":"","cuisine":"","phone":"","website":"","email":"","stars":"","rooms":"","internet_access":"","wheelchair":"","outdoor_seating":"","takeaway":"","delivery":"","payment":"","source":"OpenStreetMap","availability":"Consultar directamente con el establecimiento"}},{"type":"Feature","geometry":{"type":"Point","coordinates":[-89.7885001,13.8911335]},"properties":{"name":"Comedor","kind":"restaurant","opening_hours":"","cuisine":"","phone":"","website":"","email":"","stars":"","rooms":"","internet_access":"","wheelchair":"","outdoor_seating":"","takeaway":"","delivery":"","payment":"","source":"OpenStreetMap","availability":"Consultar directamente con el establecimiento"}},{"type":"Feature","geometry":{"type":"Point","coordinates":[-89.7578209,13.8298849]},"properties":{"name":"Venta de Yuca","kind":"restaurant","opening_hours":"","cuisine":"","phone":"","website":"","email":"","stars":"","rooms":"","internet_access":"","wheelchair":"","outdoor_seating":"","takeaway":"","delivery":"","payment":"","source":"OpenStreetMap","availability":"Consultar directamente con el establecimiento"}},{"type":"Feature","geometry":{"type":"Point","coordinates":[-89.6713662,13.8754266]},"properties":{"name":"Restaurante el Paso Alaska","kind":"restaurant","opening_hours":"","cuisine":"","phone":"","website":"","email":"","stars":"","rooms":"","internet_access":"","wheelchair":"","outdoor_seating":"","takeaway":"","delivery":"","payment":"","source":"OpenStreetMap","availability":"Consultar directamente con el establecimiento"}},{"type":"Feature","geometry":{"type":"Point","coordinates":[-89.2533726,13.6770504]},"properties":{"name":"La Fabrica del Gelato","kind":"restaurant","opening_hours":"","cuisine":"ice_cream","phone":"","website":"","email":"","stars":"","rooms":"","internet_access":"","wheelchair":"","outdoor_seating":"","takeaway":"","delivery":"","payment":"","source":"OpenStreetMap","availability":"Consultar directamente con el establecimiento"}},{"type":"Feature","geometry":{"type":"Point","coordinates":[-89.25392,13.6766936]},"properties":{"name":"Buffalo Wings","kind":"restaurant","opening_hours":"","cuisine":"chicken","phone":"","website":"","email":"","stars":"","rooms":"","internet_access":"","wheelchair":"","outdoor_seating":"","takeaway":"","delivery":"","payment":"","source":"OpenStreetMap","availability":"Consultar directamente con el establecimiento"}},{"type":"Feature","geometry":{"type":"Point","coordinates":[-89.2530778,13.677079]},"properties":{"name":"Chili's","kind":"restaurant","opening_hours":"","cuisine":"mexican","phone":"","website":"","email":"","stars":"","rooms":"","internet_access":"","wheelchair":"","outdoor_seating":"","takeaway":"","delivery":"","payment":"","source":"OpenStreetMap","availability":"Consultar directamente con el establecimiento"}},{"type":"Feature","geometry":{"type":"Point","coordinates":[-89.2543811,13.6766568]},"properties":{"name":"Bennigan's","kind":"restaurant","opening_hours":"","cuisine":"burger","phone":"","website":"https://bennigans.sv/","email":"","stars":"","rooms":"","internet_access":"","wheelchair":"","outdoor_seating":"","takeaway":"","delivery":"","payment":"","source":"OpenStreetMap","availability":"Consultar directamente con el establecimiento"}},{"type":"Feature","geometry":{"type":"Point","coordinates":[-89.2818676,13.6538985]},"properties":{"name":"Subway Las Palmas","kind":"restaurant","opening_hours":"","cuisine":"","phone":"","website":"","email":"","stars":"","rooms":"","internet_access":"","wheelchair":"","outdoor_seating":"","takeaway":"","delivery":"","payment":"","source":"OpenStreetMap","availability":"Consultar directamente con el establecimiento"}},{"type":"Feature","geometry":{"type":"Point","coordinates":[-89.280591,13.6542217]},"properties":{"name":"The Coffee Cup Las Palmas","kind":"cafe","opening_hours":"","cuisine":"coffee_shop","phone":"","website":"","email":"","stars":"","rooms":"","internet_access":"","wheelchair":"","outdoor_seating":"","takeaway":"","delivery":"","payment":"","source":"OpenStreetMap","availability":"Consultar directamente con el establecimiento"}},{"type":"Feature","geometry":{"type":"Point","coordinates":[-89.2806929,13.65418]},"properties":{"name":"Buffalo Wings  Las Palmas","kind":"restaurant","opening_hours":"","cuisine":"","phone":"","website":"","email":"","stars":"","rooms":"","internet_access":"","wheelchair":"","outdoor_seating":"","takeaway":"","delivery":"","payment":"","source":"OpenStreetMap","availability":"Consultar directamente con el establecimiento"}},{"type":"Feature","geometry":{"type":"Point","coordinates":[-89.2789063,13.6561505]},"properties":{"name":"Mister Donut La Joya","kind":"restaurant","opening_hours":"","cuisine":"","phone":"","website":"","email":"","stars":"","rooms":"","internet_access":"","wheelchair":"","outdoor_seating":"","takeaway":"","delivery":"","payment":"","source":"OpenStreetMap","availability":"Consultar directamente con el establecimiento"}},{"type":"Feature","geometry":{"type":"Point","coordinates":[-89.2695188,13.6667165]},"properties":{"name":"Auto Hotel La Fuente","kind":"hotel","opening_hours":"","cuisine":"","phone":"","website":"","email":"","stars":"","rooms":"","internet_access":"","wheelchair":"","outdoor_seating":"","takeaway":"","delivery":"","payment":"","source":"OpenStreetMap","availability":"Consultar directamente con el establecimiento"}},{"type":"Feature","geometry":{"type":"Point","coordinates":[-89.2754626,13.664277]},"properties":{"name":"Tipicos Margoth","kind":"restaurant","opening_hours":"","cuisine":"","phone":"","website":"","email":"","stars":"","rooms":"","internet_access":"","wheelchair":"","outdoor_seating":"","takeaway":"","delivery":"","payment":"","source":"OpenStreetMap","availability":"Consultar directamente con el establecimiento"}},{"type":"Feature","geometry":{"type":"Point","coordinates":[-89.2715841,13.6666644]},"properties":{"name":"Auto Hotel Flamingos","kind":"hotel","opening_hours":"","cuisine":"","phone":"","website":"","email":"","stars":"","rooms":"","internet_access":"","wheelchair":"","outdoor_seating":"","takeaway":"","delivery":"","payment":"","source":"OpenStreetMap","availability":"Consultar directamente con el establecimiento"}},{"type":"Feature","geometry":{"type":"Point","coordinates":[-89.2767232,13.6613944]},"properties":{"name":"Auto Hotel El Doral","kind":"hotel","opening_hours":"","cuisine":"","phone":"","website":"","email":"","stars":"","rooms":"","internet_access":"","wheelchair":"","outdoor_seating":"","takeaway":"","delivery":"","payment":"","source":"OpenStreetMap","availability":"Consultar directamente con el establecimiento"}},{"type":"Feature","geometry":{"type":"Point","coordinates":[-89.2783164,13.653703]},"properties":{"name":"Auto Hotel La Campana","kind":"hotel","opening_hours":"","cuisine":"","phone":"","website":"","email":"","stars":"","rooms":"","internet_access":"","wheelchair":"","outdoor_seating":"","takeaway":"","delivery":"","payment":"","source":"OpenStreetMap","availability":"Consultar directamente con el establecimiento"}},{"type":"Feature","geometry":{"type":"Point","coordinates":[-89.2599004,13.6757601]},"properties":{"name":"Comedor","kind":"restaurant","opening_hours":"","cuisine":"","phone":"","website":"","email":"","stars":"","rooms":"","internet_access":"","wheelchair":"","outdoor_seating":"","takeaway":"","delivery":"","payment":"","source":"OpenStreetMap","availability":"Consultar directamente con el establecimiento"}},{"type":"Feature","geometry":{"type":"Point","coordinates":[-89.2598843,13.6766826]},"properties":{"name":"Pupuseria","kind":"restaurant","opening_hours":"","cuisine":"","phone":"","website":"","email":"","stars":"","rooms":"","internet_access":"","wheelchair":"","outdoor_seating":"","takeaway":"","delivery":"","payment":"","source":"OpenStreetMap","availability":"Consultar directamente con el establecimiento"}},{"type":"Feature","geometry":{"type":"Point","coordinates":[-89.26354,13.675397]},"properties":{"name":"Pizzeria Krisppy's","kind":"restaurant","opening_hours":"","cuisine":"pizza","phone":"","website":"","email":"","stars":"","rooms":"","internet_access":"","wheelchair":"","outdoor_seating":"","takeaway":"","delivery":"","payment":"","source":"OpenStreetMap","availability":"Consultar directamente con el establecimiento"}},{"type":"Feature","geometry":{"type":"Point","coordinates":[-89.263046,13.675173]},"properties":{"name":"Hotel Merliot","kind":"hotel","opening_hours":"","cuisine":"","phone":"","website":"","email":"","stars":"","rooms":"","internet_access":"","wheelchair":"","outdoor_seating":"","takeaway":"","delivery":"","payment":"","source":"OpenStreetMap","availability":"Consultar directamente con el establecimiento"}},{"type":"Feature","geometry":{"type":"Point","coordinates":[-89.2642545,13.6778795]},"properties":{"name":"Shaws","kind":"restaurant","opening_hours":"","cuisine":"","phone":"","website":"","email":"","stars":"","rooms":"","internet_access":"","wheelchair":"","outdoor_seating":"","takeaway":"","delivery":"","payment":"","source":"OpenStreetMap","availability":"Consultar directamente con el establecimiento"}},{"type":"Feature","geometry":{"type":"Point","coordinates":[-89.2642066,13.6778768]},"properties":{"name":"Súper Marinos","kind":"restaurant","opening_hours":"","cuisine":"","phone":"","website":"","email":"","stars":"","rooms":"","internet_access":"","wheelchair":"","outdoor_seating":"","takeaway":"","delivery":"","payment":"","source":"OpenStreetMap","availability":"Consultar directamente con el establecimiento"}},{"type":"Feature","geometry":{"type":"Point","coordinates":[-89.2641663,13.677871]},"properties":{"name":"Sorbetes Pops","kind":"restaurant","opening_hours":"","cuisine":"","phone":"","website":"","email":"","stars":"","rooms":"","internet_access":"","wheelchair":"","outdoor_seating":"","takeaway":"","delivery":"","payment":"","source":"OpenStreetMap","availability":"Consultar directamente con el establecimiento"}},{"type":"Feature","geometry":{"type":"Point","coordinates":[-89.2641169,13.6778637]},"properties":{"name":"Tacos En El Platillo","kind":"restaurant","opening_hours":"","cuisine":"","phone":"","website":"","email":"","stars":"","rooms":"","internet_access":"","wheelchair":"","outdoor_seating":"","takeaway":"","delivery":"","payment":"","source":"OpenStreetMap","availability":"Consultar directamente con el establecimiento"}},{"type":"Feature","geometry":{"type":"Point","coordinates":[-89.2703481,13.6795031]},"properties":{"name":"Tacos Los Parados","kind":"restaurant","opening_hours":"","cuisine":"","phone":"","website":"","email":"","stars":"","rooms":"","internet_access":"","wheelchair":"","outdoor_seating":"","takeaway":"","delivery":"","payment":"","source":"OpenStreetMap","availability":"Consultar directamente con el establecimiento"}},{"type":"Feature","geometry":{"type":"Point","coordinates":[-89.2712696,13.6757984]},"properties":{"name":"Pupusería","kind":"restaurant","opening_hours":"","cuisine":"","phone":"","website":"","email":"","stars":"","rooms":"","internet_access":"","wheelchair":"","outdoor_seating":"","takeaway":"","delivery":"","payment":"","source":"OpenStreetMap","availability":"Consultar directamente con el establecimiento"}},{"type":"Feature","geometry":{"type":"Point","coordinates":[-89.2712,13.676517]},"properties":{"name":"Pizza Romana","kind":"restaurant","opening_hours":"","cuisine":"","phone":"","website":"","email":"","stars":"","rooms":"","internet_access":"","wheelchair":"","outdoor_seating":"","takeaway":"","delivery":"","payment":"","source":"OpenStreetMap","availability":"Consultar directamente con el establecimiento"}},{"type":"Feature","geometry":{"type":"Point","coordinates":[-89.2680362,13.6771883]},"properties":{"name":"Pupuseria Magda","kind":"restaurant","opening_hours":"","cuisine":"","phone":"","website":"","email":"","stars":"","rooms":"","internet_access":"","wheelchair":"","outdoor_seating":"","takeaway":"","delivery":"","payment":"","source":"OpenStreetMap","availability":"Consultar directamente con el establecimiento"}},{"type":"Feature","geometry":{"type":"Point","coordinates":[-89.2701476,13.6790559]},"properties":{"name":"Shaws","kind":"restaurant","opening_hours":"","cuisine":"","phone":"","website":"","email":"","stars":"","rooms":"","internet_access":"","wheelchair":"","outdoor_seating":"","takeaway":"","delivery":"","payment":"","source":"OpenStreetMap","availability":"Consultar directamente con el establecimiento"}},{"type":"Feature","geometry":{"type":"Point","coordinates":[-89.2702035,13.6787468]},"properties":{"name":"Restaurante coreano","kind":"restaurant","opening_hours":"","cuisine":"","phone":"","website":"","email":"","stars":"","rooms":"","internet_access":"","wheelchair":"","outdoor_seating":"","takeaway":"","delivery":"","payment":"","source":"OpenStreetMap","availability":"Consultar directamente con el establecimiento"}},{"type":"Feature","geometry":{"type":"Point","coordinates":[-89.2291704,13.702626]},"properties":{"name":"Papalandia","kind":"fast_food","opening_hours":"","cuisine":"regional","phone":"","website":"","email":"","stars":"","rooms":"","internet_access":"","wheelchair":"","outdoor_seating":"","takeaway":"","delivery":"","payment":"","source":"OpenStreetMap","availability":"Consultar directamente con el establecimiento"}},{"type":"Feature","geometry":{"type":"Point","coordinates":[-89.231391,13.7023102]},"properties":{"name":"On the Run","kind":"cafe","opening_hours":"","cuisine":"","phone":"","website":"","email":"","stars":"","rooms":"","internet_access":"","wheelchair":"","outdoor_seating":"","takeaway":"","delivery":"","payment":"","source":"OpenStreetMap","availability":"Consultar directamente con el establecimiento"}},{"type":"Feature","geometry":{"type":"Point","coordinates":[-89.2346877,13.7036365]},"properties":{"name":"El Barracuda","kind":"bar","opening_hours":"","cuisine":"","phone":"","website":"","email":"","stars":"","rooms":"","internet_access":"","wheelchair":"","outdoor_seating":"","takeaway":"","delivery":"","payment":"","source":"OpenStreetMap","availability":"Consultar directamente con el establecimiento"}},{"type":"Feature","geometry":{"type":"Point","coordinates":[-89.2291036,13.7025617]},"properties":{"name":"Subway","kind":"fast_food","opening_hours":"","cuisine":"sandwich","phone":"","website":"","email":"","stars":"","rooms":"","internet_access":"","wheelchair":"","outdoor_seating":"","takeaway":"yes","delivery":"","payment":"","source":"OpenStreetMap","availability":"Consultar directamente con el establecimiento"}},{"type":"Feature","geometry":{"type":"Point","coordinates":[-89.2302282,13.7022176]},"properties":{"name":"Cafe Maquilishuat","kind":"restaurant","opening_hours":"","cuisine":"regional;coffee_shop;sandwich","phone":"","website":"","email":"","stars":"","rooms":"","internet_access":"","wheelchair":"","outdoor_seating":"","takeaway":"","delivery":"","payment":"","source":"OpenStreetMap","availability":"Consultar directamente con el establecimiento"}},{"type":"Feature","geometry":{"type":"Point","coordinates":[-89.2291081,13.7024718]},"properties":{"name":"Papa John's","kind":"fast_food","opening_hours":"","cuisine":"pizza","phone":"","website":"","email":"","stars":"","rooms":"","internet_access":"","wheelchair":"","outdoor_seating":"","takeaway":"yes","delivery":"","payment":"","source":"OpenStreetMap","availability":"Consultar directamente con el establecimiento"}},{"type":"Feature","geometry":{"type":"Point","coordinates":[-89.2295885,13.7023779]},"properties":{"name":"Coffee Station","kind":"cafe","opening_hours":"","cuisine":"coffee_shop","phone":"","website":"","email":"","stars":"","rooms":"","internet_access":"no","wheelchair":"","outdoor_seating":"","takeaway":"","delivery":"","payment":"","source":"OpenStreetMap","availability":"Consultar directamente con el establecimiento"}},{"type":"Feature","geometry":{"type":"Point","coordinates":[-89.2292245,13.702381]},"properties":{"name":"D'Elote","kind":"fast_food","opening_hours":"","cuisine":"regional","phone":"","website":"","email":"","stars":"","rooms":"","internet_access":"","wheelchair":"","outdoor_seating":"","takeaway":"","delivery":"","payment":"","source":"OpenStreetMap","availability":"Consultar directamente con el establecimiento"}},{"type":"Feature","geometry":{"type":"Point","coordinates":[-89.233872,13.7019584]},"properties":{"name":"Pasquale","kind":"restaurant","opening_hours":"","cuisine":"italian;pizza","phone":"","website":"","email":"","stars":"","rooms":"","internet_access":"","wheelchair":"","outdoor_seating":"","takeaway":"","delivery":"","payment":"","source":"OpenStreetMap","availability":"Consultar directamente con el establecimiento"}},{"type":"Feature","geometry":{"type":"Point","coordinates":[-89.2313829,13.7042698]},"properties":{"name":"Circo","kind":"bar","opening_hours":"","cuisine":"","phone":"","website":"","email":"","stars":"","rooms":"","internet_access":"","wheelchair":"","outdoor_seating":"","takeaway":"","delivery":"","payment":"","source":"OpenStreetMap","availability":"Consultar directamente con el establecimiento"}},{"type":"Feature","geometry":{"type":"Point","coordinates":[-89.2288476,13.7022111]},"properties":{"name":"El Zócalo Escalón","kind":"restaurant","opening_hours":"","cuisine":"mexican","phone":"","website":"","email":"","stars":"","rooms":"","internet_access":"","wheelchair":"","outdoor_seating":"","takeaway":"","delivery":"","payment":"","source":"OpenStreetMap","availability":"Consultar directamente con el establecimiento"}},{"type":"Feature","geometry":{"type":"Point","coordinates":[-89.2539183,13.677281]},"properties":{"name":"Sushi-itto","kind":"restaurant","opening_hours":"","cuisine":"japanese","phone":"","website":"","email":"","stars":"","rooms":"","internet_access":"","wheelchair":"","outdoor_seating":"","takeaway":"","delivery":"","payment":"","source":"OpenStreetMap","availability":"Consultar directamente con el establecimiento"}},{"type":"Feature","geometry":{"type":"Point","coordinates":[-89.2539463,13.676957]},"properties":{"name":"Papa Johns","kind":"restaurant","opening_hours":"","cuisine":"pizza","phone":"","website":"","email":"","stars":"","rooms":"","internet_access":"","wheelchair":"","outdoor_seating":"","takeaway":"","delivery":"","payment":"","source":"OpenStreetMap","availability":"Consultar directamente con el establecimiento"}},{"type":"Feature","geometry":{"type":"Point","coordinates":[-89.194415,13.65718]},"properties":{"name":"Café Juregua","kind":"cafe","opening_hours":"","cuisine":"","phone":"+(503)22807034","website":"www.restaurantejuregua.com","email":"","stars":"","rooms":"","internet_access":"","wheelchair":"","outdoor_seating":"","takeaway":"","delivery":"","payment":"","source":"OpenStreetMap","availability":"Consultar directamente con el establecimiento"}},{"type":"Feature","geometry":{"type":"Point","coordinates":[-89.2142717,13.6807916]},"properties":{"name":"Restaurante El Basurero Monserrat","kind":"restaurant","opening_hours":"","cuisine":"regional;seafood","phone":"","website":"","email":"","stars":"","rooms":"","internet_access":"","wheelchair":"","outdoor_seating":"","takeaway":"","delivery":"","payment":"","source":"OpenStreetMap","availability":"Consultar directamente con el establecimiento"}},{"type":"Feature","geometry":{"type":"Point","coordinates":[-89.239848,13.690112]},"properties":{"name":"Comedor","kind":"restaurant","opening_hours":"","cuisine":"","phone":"","website":"","email":"","stars":"","rooms":"","internet_access":"","wheelchair":"","outdoor_seating":"","takeaway":"","delivery":"","payment":"","source":"OpenStreetMap","availability":"Consultar directamente con el establecimiento"}},{"type":"Feature","geometry":{"type":"Point","coordinates":[-89.2407298,13.6905991]},"properties":{"name":"El Pomodoro","kind":"restaurant","opening_hours":"","cuisine":"italian","phone":"","website":"","email":"","stars":"","rooms":"","internet_access":"","wheelchair":"","outdoor_seating":"","takeaway":"","delivery":"","payment":"","source":"OpenStreetMap","availability":"Consultar directamente con el establecimiento"}},{"type":"Feature","geometry":{"type":"Point","coordinates":[-89.2060746,13.734227]},"properties":{"name":"La colmenita","kind":"bar","opening_hours":"","cuisine":"","phone":"","website":"","email":"","stars":"","rooms":"","internet_access":"","wheelchair":"","outdoor_seating":"","takeaway":"","delivery":"","payment":"","source":"OpenStreetMap","availability":"Consultar directamente con el establecimiento"}},{"type":"Feature","geometry":{"type":"Point","coordinates":[-88.1715595,13.4848038]},"properties":{"name":"Cafeteria y Pastelería","kind":"cafe","opening_hours":"","cuisine":"spanish","phone":"","website":"","email":"","stars":"","rooms":"","internet_access":"","wheelchair":"","outdoor_seating":"","takeaway":"","delivery":"","payment":"","source":"OpenStreetMap","availability":"Consultar directamente con el establecimiento"}},{"type":"Feature","geometry":{"type":"Point","coordinates":[-88.1719614,13.4845389]},