{"type":"FeatureCollection","metadata":{"source":"Catálogo oficial de turismo","fetched_at":"2026-07-12T17:48:56.648Z","record_count":104,"department_count":13,"category_count":26,"locale":"es-SV","statistics":{"verified":45,"featured":20,"averageRating":4.33}},"features":[{"type":"Feature","geometry":{"type":"Point","coordinates":[-89.0556,13.4409]},"properties":{"official_id":"cmrhpk0na007a13v9net4nua0","name":"Aeropuerto Internacional de El Salvador","slug":"aeropuerto-internacional-de-el-salvador","category":"Aeropuertos","cat":"turismo","department":"La Paz","municipality":"La Paz Este","address":"Comalapa, La Paz","rating":4.2,"verified":true,"featured":false,"source":"MITUR"}},{"type":"Feature","geometry":{"type":"Point","coordinates":[-89.7994,13.8506]},"properties":{"official_id":"cmrhpk0n7006f13v9jupng2g0","name":"Apaneca","slug":"apaneca","category":"Pueblos Turísticos","cat":"historico","department":"Ahuachapán","municipality":"Ahuachapán Centro","address":"Apaneca, Ahuachapán","rating":4.6,"verified":true,"featured":true,"source":"MITUR"}},{"type":"Feature","geometry":{"type":"Point","coordinates":[-89.8667,13.9]},"properties":{"official_id":"cmrhpk0na007513v9keez8u8f","name":"Ausoles de Ahuachapán","slug":"ausoles-de-ahuachapan","category":"Balnearios y Aguas Termales","cat":"parque","department":"Ahuachapán","municipality":"Ahuachapán Centro","address":"Ahuachapán","rating":4.1,"verified":false,"featured":false,"source":"MITUR"}},{"type":"Feature","geometry":{"type":"Point","coordinates":[-88.55,13.25]},"properties":{"official_id":"cmrhpk0n3005e13v9nzh73vjl","name":"Bahía de Jiquilisco","slug":"bahia-de-jiquilisco","category":"Reservas Naturales","cat":"parque","department":"Usulután","municipality":"Usulután Este","address":"Puerto El Triunfo, Usulután","rating":4.6,"verified":true,"featured":true,"source":"MITUR"}},{"type":"Feature","geometry":{"type":"Point","coordinates":[-90.0167,13.7167]},"properties":{"official_id":"cmrhpk0n3005d13v9yazrcwdd","name":"Barra de Santiago","slug":"barra-de-santiago","category":"Playas","cat":"playa","department":"Ahuachapán","municipality":"Ahuachapán Sur","address":"Jujutla, Ahuachapán","rating":4.5,"verified":true,"featured":false,"source":"MITUR"}},{"type":"Feature","geometry":{"type":"Point","coordinates":[-88.45,13.35]},"properties":{"official_id":"cmrhpk0nc007u13v9g9kdz4f7","name":"Casa Museo Alberto Masferrer","slug":"casa-museo-alberto-masferrer","category":"Museos","cat":"historico","department":"Usulután","municipality":"Usulután Oeste","address":"Usulután","rating":3.8,"verified":false,"featured":false,"source":"MITUR"}},{"type":"Feature","geometry":{"type":"Point","coordinates":[-89.9667,13.85]},"properties":{"official_id":"cmrhpk0n5006013v9tfb2kdjy","name":"Cascada de Tepechapa","slug":"cascada-de-tepechapa","category":"Ríos y Cascadas","cat":"cascada","department":"Ahuachapán","municipality":"Ahuachapán Sur","address":"Tacuba, Ahuachapán","rating":4.5,"verified":false,"featured":false,"source":"MITUR"}},{"type":"Feature","geometry":{"type":"Point","coordinates":[-89.755,13.845]},"properties":{"official_id":"cmrhpk0n5005z13v9wd5vtie9","name":"Cascada Don Juan","slug":"cascada-don-juan","category":"Ríos y Cascadas","cat":"cascada","department":"Sonsonate","municipality":"Sonsonate Este","address":"Juayúa, Sonsonate","rating":4.4,"verified":false,"featured":false,"source":"MITUR"}},{"type":"Feature","geometry":{"type":"Point","coordinates":[-89.5588,13.994]},"properties":{"official_id":"cmrhpk0na007413v9j22dfby8","name":"Catedral de Santa Ana","slug":"catedral-de-santa-ana","category":"Iglesias y Templos","cat":"historico","department":"Santa Ana","municipality":"Santa Ana Centro","address":"Santa Ana","rating":4.4,"verified":false,"featured":false,"source":"MITUR"}},{"type":"Feature","geometry":{"type":"Point","coordinates":[-89.1914,13.6989]},"properties":{"official_id":"cmrhpk0n8006n13v932njgi31","name":"Catedral Metropolitana de San Salvador","slug":"catedral-metropolitana-de-san-salvador","category":"Iglesias y Templos","cat":"historico","department":"San Salvador","municipality":"San Salvador Centro","address":"Centro Histórico, San Salvador","rating":4.5,"verified":true,"featured":false,"source":"MITUR"}},{"type":"Feature","geometry":{"type":"Point","coordinates":[-89.559,13.9942]},"properties":{"official_id":"cmrhpk0na007213v9u00zf3d5","name":"Centro Histórico de Santa Ana","slug":"centro-historico-de-santa-ana","category":"Centros Históricos","cat":"historico","department":"Santa Ana","municipality":"Santa Ana Centro","address":"Santa Ana","rating":4.3,"verified":false,"featured":false,"source":"MITUR"}},{"type":"Feature","geometry":{"type":"Point","coordinates":[-89.1667,13.8667]},"properties":{"official_id":"cmrhpk0nc007v13v9yuvfcp30","name":"Cerro de Guazapa","slug":"cerro-de-guazapa","category":"Miradores","cat":"montana","department":"San Salvador","municipality":"San Salvador Norte","address":"Guazapa, San Salvador","rating":4.2,"verified":false,"featured":false,"source":"MITUR"}},{"type":"Feature","geometry":{"type":"Point","coordinates":[-89.05,13.95]},"properties":{"official_id":"cmrhpk0nc007s13v90h3bm8ka","name":"Cerro de las Pavas","slug":"cerro-de-las-pavas","category":"Miradores","cat":"montana","department":"Chalatenango","municipality":"Chalatenango Sur","address":"Suchitoto, Cuscatlán","rating":4.5,"verified":false,"featured":false,"source":"MITUR"}},{"type":"Feature","geometry":{"type":"Point","coordinates":[-89.1225,14.3894]},"properties":{"official_id":"cmrhpk0nc007r13v9mykne204","name":"Cerro El Pital","slug":"cerro-el-pital","category":"Miradores","cat":"montana","department":"Chalatenango","municipality":"Chalatenango Norte","address":"San Ignacio, Chalatenango","rating":4.6,"verified":true,"featured":false,"source":"MITUR"}},{"type":"Feature","geometry":{"type":"Point","coordinates":[-89.6244,13.8394]},"properties":{"official_id":"cmrhpk0n4005k13v9bv8g2xda","name":"Cerro Verde","slug":"cerro-verde","category":"Miradores","cat":"montana","department":"Sonsonate","municipality":"Sonsonate Norte","address":"Parque Nacional Los Volcanes, Sonsonate","rating":4.5,"verified":false,"featured":false,"source":"MITUR"}},{"type":"Feature","geometry":{"type":"Point","coordinates":[-89.6833,13.9833]},"properties":{"official_id":"cmrhpk0nd008013v9q68688w4","name":"Complejo Arqueológico El Trapiche (Chalchuapa)","slug":"complejo-arqueologico-el-trapiche-chalchuapa","category":"Zonas Arqueológicas Mayas","cat":"historico","department":"Santa Ana","municipality":"Santa Ana Oeste","address":"Chalchuapa, Santa Ana","rating":4,"verified":false,"featured":false,"source":"MITUR"}},{"type":"Feature","geometry":{"type":"Point","coordinates":[-89.8433,13.8722]},"properties":{"official_id":"cmrhpk0n7006e13v9sbrq3b7s","name":"Concepción de Ataco","slug":"concepcion-de-ataco","category":"Pueblos Turísticos","cat":"historico","department":"Ahuachapán","municipality":"Ahuachapán Centro","address":"Concepción de Ataco, Ahuachapán","rating":4.7,"verified":true,"featured":true,"source":"MITUR"}},{"type":"Feature","geometry":{"type":"Point","coordinates":[-88.4667,13.2333]},"properties":{"official_id":"cmrhpk0nd007x13v9xr1ajl2p","name":"Desembocadura del Río Lempa","slug":"desembocadura-del-rio-lempa","category":"Reservas Naturales","cat":"parque","department":"Usulután","municipality":"Usulután Este","address":"Jiquilisco, Usulután","rating":4.3,"verified":false,"featured":false,"source":"MITUR"}},{"type":"Feature","geometry":{"type":"Point","coordinates":[-89.7256,13.72]},"properties":{"official_id":"cmrhpk0nc007t13v9gh5a28l3","name":"Estación del Ferrocarril de Sonsonate","slug":"estacion-del-ferrocarril-de-sonsonate","category":"Museos","cat":"historico","department":"Sonsonate","municipality":"Sonsonate Centro","address":"Sonsonate","rating":3.9,"verified":false,"featured":false,"source":"MITUR"}},{"type":"Feature","geometry":{"type":"Point","coordinates":[-89.7461,13.8425]},"properties":{"official_id":"cmrhpk0nb007o13v9fszpiagz","name":"Feria Gastronómica de Juayúa","slug":"feria-gastronomica-de-juayua","category":"Ferias y Artesanías","cat":"turismo","department":"Sonsonate","municipality":"Sonsonate Este","address":"Juayúa, Sonsonate","rating":4.5,"verified":false,"featured":true,"source":"MITUR"}},{"type":"Feature","geometry":{"type":"Point","coordinates":[-87.8433,13.3369]},"properties":{"official_id":"cmrhpk0n4005g13v9tm3yge51","name":"Golfo de Fonseca (La Unión)","slug":"golfo-de-fonseca-la-union","category":"Puertos","cat":"turismo","department":"La Unión","municipality":"La Unión Sur","address":"La Unión centro","rating":4.1,"verified":false,"featured":false,"source":"MITUR"}},{"type":"Feature","geometry":{"type":"Point","coordinates":[-89.9,13.78]},"properties":{"official_id":"cmrhpk0nd007y13v9j98o749r","name":"Grutas de El Espino","slug":"grutas-de-el-espino","category":"Reservas Naturales","cat":"parque","department":"Ahuachapán","municipality":"Ahuachapán Sur","address":"Jujutla, Ahuachapán","rating":4,"verified":false,"featured":false,"source":"MITUR"}},{"type":"Feature","geometry":{"type":"Point","coordinates":[-89.1908,13.6981]},"properties":{"official_id":"cmrhpk0n8006o13v9pe00clyr","name":"Iglesia El Rosario","slug":"iglesia-el-rosario","category":"Iglesias y Templos","cat":"historico","department":"San Salvador","municipality":"San Salvador Centro","address":"Centro Histórico, San Salvador","rating":4.7,"verified":true,"featured":true,"source":"MITUR"}},{"type":"Feature","geometry":{"type":"Point","coordinates":[-87.7167,13.1167]},"properties":{"official_id":"cmrhpk0n4005h13v9dylceqe4","name":"Isla de Meanguera","slug":"isla-de-meanguera","category":"Playas","cat":"playa","department":"La Unión","municipality":"La Unión Sur","address":"Golfo de Fonseca, La Unión","rating":4,"verified":false,"featured":false,"source":"MITUR"}},{"type":"Feature","geometry":{"type":"Point","coordinates":[-88.55,13.2]},"properties":{"official_id":"cmrhpk0n4005f13v9c70cebuy","name":"Isla El Espíritu Santo","slug":"isla-el-espiritu-santo","category":"Playas","cat":"playa","department":"Usulután","municipality":"Usulután Este","address":"Bahía de Jiquilisco, Usulután","rating":4.2,"verified":false,"featured":false,"source":"MITUR"}},{"type":"Feature","geometry":{"type":"Point","coordinates":[-89.2803,13.6689]},"properties":{"official_id":"cmrhpk0n9007113v9kujwgvwl","name":"Jardín Botánico La Laguna","slug":"jardin-botanico-la-laguna","category":"Parques Urbanos","cat":"parque","department":"La Libertad","municipality":"La Libertad Centro","address":"Antiguo Cuscatlán, La Libertad","rating":4.4,"verified":true,"featured":false,"source":"MITUR"}},{"type":"Feature","geometry":{"type":"Point","coordinates":[-89.3653,13.8258]},"properties":{"official_id":"cmrhpk0n6006813v9i5i44xf3","name":"Joya de Cerén","slug":"joya-de-ceren","category":"Zonas Arqueológicas Mayas","cat":"historico","department":"La Libertad","municipality":"La Libertad Norte","address":"San Juan Opico, La Libertad","rating":4.7,"verified":true,"featured":true,"source":"MITUR"}},{"type":"Feature","geometry":{"type":"Point","coordinates":[-89.7461,13.8425]},"properties":{"official_id":"cmrhpk0n7006g13v9pja68bmh","name":"Juayúa","slug":"juayua","category":"Pueblos Turísticos","cat":"historico","department":"Sonsonate","municipality":"Sonsonate Este","address":"Juayúa, Sonsonate","rating":4.6,"verified":true,"featured":true,"source":"MITUR"}},{"type":"Feature","geometry":{"type":"Point","coordinates":[-89.55,13.8667]},"properties":{"official_id":"cmrhpk0n4005q13v94afvbw34","name":"Lago de Coatepeque","slug":"lago-de-coatepeque","category":"Lagos y Lagunas","cat":"parque","department":"Santa Ana","municipality":"Santa Ana Este","address":"El Congo, Santa Ana","rating":4.5,"verified":true,"featured":true,"source":"MITUR"}},{"type":"Feature","geometry":{"type":"Point","coordinates":[-89.05,13.6833]},"properties":{"official_id":"cmrhpk0n4005r13v91qs3yqf4","name":"Lago de Ilopango","slug":"lago-de-ilopango","category":"Lagos y Lagunas","cat":"parque","department":"San Salvador","municipality":"San Salvador Este","address":"Ilopango, San Salvador","rating":4.2,"verified":false,"featured":false,"source":"MITUR"}},{"type":"Feature","geometry":{"type":"Point","coordinates":[-89.0333,13.9333]},"properties":{"official_id":"cmrhpk0n4005s13v9xo0gib9v","name":"Lago de Suchitlán","slug":"lago-de-suchitlan","category":"Lagos y Lagunas","cat":"parque","department":"Chalatenango","municipality":"Chalatenango Sur","address":"Suchitoto, Cuscatlán/Chalatenango","rating":4.6,"verified":true,"featured":true,"source":"MITUR"}},{"type":"Feature","geometry":{"type":"Point","coordinates":[-88.4931,13.5006]},"properties":{"official_id":"cmrhpk0n5005t13v9oool32fw","name":"Laguna de Alegría","slug":"laguna-de-alegria","category":"Lagos y Lagunas","cat":"parque","department":"Usulután","municipality":"Usulután Norte","address":"Alegría, Usulután","rating":4.4,"verified":false,"featured":false,"source":"MITUR"}},{"type":"Feature","geometry":{"type":"Point","coordinates":[-89.4667,14.1333]},"properties":{"official_id":"cmrhpk0n5005w13v9culm4wu2","name":"Laguna de Metapán / Güija","slug":"laguna-de-metapan-guija","category":"Lagos y Lagunas","cat":"parque","department":"Santa Ana","municipality":"Santa Ana Norte","address":"Metapán, Santa Ana","rating":4.3,"verified":true,"featured":false,"source":"MITUR"}},{"type":"Feature","geometry":{"type":"Point","coordinates":[-87.9667,13.2167]},"properties":{"official_id":"cmrhpk0n5005u13v9h2ue6gy7","name":"Laguna de Olomega","slug":"laguna-de-olomega","category":"Lagos y Lagunas","cat":"parque","department":"San Miguel","municipality":"San Miguel Oeste","address":"San Miguel / La Unión","rating":4.1,"verified":false,"featured":false,"source":"MITUR"}},{"type":"Feature","geometry":{"type":"Point","coordinates":[-89.85,13.9]},"properties":{"official_id":"cmrhpk0n5005v13v90mj23pbe","name":"Laguna Verde de Ahuachapán","slug":"laguna-verde-de-ahuachapan","category":"Lagos y Lagunas","cat":"parque","department":"Ahuachapán","municipality":"Ahuachapán Centro","address":"Ahuachapán","rating":4.2,"verified":false,"featured":false,"source":"MITUR"}},{"type":"Feature","geometry":{"type":"Point","coordinates":[-89.1667,14.3167]},"properties":{"official_id":"cmrhpk0n7006j13v9f8djl16p","name":"La Palma","slug":"la-palma","category":"Pueblos Turísticos","cat":"historico","department":"Chalatenango","municipality":"Chalatenango Norte","address":"La Palma, Chalatenango","rating":4.5,"verified":true,"featured":false,"source":"MITUR"}},{"type":"Feature","geometry":{"type":"Point","coordinates":[-89.4,13.75]},"properties":{"official_id":"cmrhpk0n5005x13v9afc4llbe","name":"Los Chorros de la Calera","slug":"los-chorros-de-la-calera","category":"Ríos y Cascadas","cat":"cascada","department":"La Libertad","municipality":"La Libertad Norte","address":"Nuevo Cuscatlán / Antiguo Cuscatlán, La Libertad","rating":4,"verified":false,"featured":false,"source":"MITUR"}},{"type":"Feature","geometry":{"type":"Point","coordinates":[-89.75,13.85]},"properties":{"official_id":"cmrhpk0n5005y13v9a68sg5d5","name":"Los Siete Chorros (Juayúa)","slug":"los-siete-chorros-juayua","category":"Ríos y Cascadas","cat":"cascada","department":"Sonsonate","municipality":"Sonsonate Este","address":"Juayúa, Sonsonate","rating":4.6,"verified":true,"featured":true,"source":"MITUR"}},{"type":"Feature","geometry":{"type":"Point","coordinates":[-89.3225,13.4867]},"properties":{"official_id":"cmrhpk0nb007m13v9wflpj797","name":"Malecón de Puerto La Libertad","slug":"malecon-de-puerto-la-libertad","category":"Malecones","cat":"playa","department":"La Libertad","municipality":"La Libertad Centro","address":"Puerto de La Libertad, La Libertad","rating":4.3,"verified":false,"featured":false,"source":"MITUR"}},{"type":"Feature","geometry":{"type":"Point","coordinates":[-89.1919,13.6994]},"properties":{"official_id":"cmrhpk0n9006z13v9qpj9wxtr","name":"Mercado Central de San Salvador","slug":"mercado-central-de-san-salvador","category":"Mercados","cat":"comida","department":"San Salvador","municipality":"San Salvador Centro","address":"Centro Histórico, San Salvador","rating":4,"verified":false,"featured":false,"source":"MITUR"}},{"type":"Feature","geometry":{"type":"Point","coordinates":[-89.1928,13.6975]},"properties":{"official_id":"cmrhpk0nb007p13v9eqlutglp","name":"Mercado Ex Cuartel (San Salvador)","slug":"mercado-ex-cuartel-san-salvador","category":"Mercados","cat":"comida","department":"San Salvador","municipality":"San Salvador Centro","address":"Centro Histórico, San Salvador","rating":3.8,"verified":false,"featured":false,"source":"MITUR"}},{"type":"Feature","geometry":{"type":"Point","coordinates":[-89.226,13.702]},"properties":{"official_id":"cmrhpk0n9006y13v9uyvelq3s","name":"Mercado Nacional de Artesanías","slug":"mercado-nacional-de-artesanias","category":"Mercados","cat":"comida","department":"San Salvador","municipality":"San Salvador Centro","address":"San Salvador","rating":4.1,"verified":false,"featured":false,"source":"MITUR"}},{"type":"Feature","geometry":{"type":"Point","coordinates":[-89.2306,13.6989]},"properties":{"official_id":"cmrhpk0nb007f13v9zyepzg6m","name":"Metrocentro San Salvador","slug":"metrocentro-san-salvador","category":"Centros Comerciales","cat":"turismo","department":"San Salvador","municipality":"San Salvador Oeste","address":"San Salvador","rating":4.2,"verified":false,"featured":false,"source":"MITUR"}},{"type":"Feature","geometry":{"type":"Point","coordinates":[-89.2264,13.7008]},"properties":{"official_id":"cmrhpk0n8006r13v9s2ks3650","name":"Monumento al Divino Salvador del Mundo","slug":"monumento-al-divino-salvador-del-mundo","category":"Centros Históricos","cat":"historico","department":"San Salvador","municipality":"San Salvador Centro","address":"Plaza Salvador del Mundo, San Salvador","rating":4.4,"verified":false,"featured":false,"source":"MITUR"}},{"type":"Feature","geometry":{"type":"Point","coordinates":[-89.2544,13.6772]},"properties":{"official_id":"cmrhpk0nb007g13v9yl3u0ids","name":"Multiplaza San Salvador","slug":"multiplaza-san-salvador","category":"Centros Comerciales","cat":"turismo","department":"La Libertad","municipality":"La Libertad Centro","address":"Antiguo Cuscatlán, La Libertad","rating":4.3,"verified":false,"featured":false,"source":"MITUR"}},{"type":"Feature","geometry":{"type":"Point","coordinates":[-89.2372,13.6997]},"properties":{"official_id":"cmrhpk0n9006w13v9jm3ujd9t","name":"Museo de Arte de El Salvador (MARTE)","slug":"museo-de-arte-de-el-salvador-marte","category":"Museos","cat":"historico","department":"San Salvador","municipality":"San Salvador Centro","address":"San Salvador","rating":4.5,"verified":true,"featured":false,"source":"MITUR"}},{"type":"Feature","geometry":{"type":"Point","coordinates":[-89.2264,13.7028]},"properties":{"official_id":"cmrhpk0n9006x13v9gk9vw50b","name":"Museo de la Palabra y la Imagen","slug":"museo-de-la-palabra-y-la-imagen","category":"Museos","cat":"historico","department":"San Salvador","municipality":"San Salvador Centro","address":"San Salvador","rating":4.4,"verified":false,"featured":false,"source":"MITUR"}},{"type":"Feature","geometry":{"type":"Point","coordinates":[-89.2372,13.6994]},"properties":{"official_id":"cmrhpk0n9006v13v95w68w2f9","name":"Museo Nacional de Antropología (MUNA)","slug":"museo-nacional-de-antropologia-muna","category":"Museos","cat":"historico","department":"San Salvador","municipality":"San Salvador Centro","address":"San Salvador","rating":4.5,"verified":true,"featured":false,"source":"MITUR"}},{"type":"Feature","geometry":{"type":"Point","coordinates":[-89.7358,13.7739]},"properties":{"official_id":"cmrhpk0n7006i13v9psc5brh7","name":"Nahuizalco","slug":"nahuizalco","category":"Pueblos Turísticos","cat":"historico","department":"Sonsonate","municipality":"Sonsonate Este","address":"Nahuizalco, Sonsonate","rating":4.4,"verified":true,"featured":false,"source":"MITUR"}},{"type":"Feature","geometry":{"type":"Point","coordinates":[-89.2797,13.6769]},"properties":{"official_id":"cmrhpk0n8006l13v94vuhlq06","name":"Nueva San Salvador (Santa Tecla) Centro Histórico","slug":"nueva-san-salvador-santa-tecla-centro-historico","category":"Centros Históricos","cat":"historico","department":"La Libertad","municipality":"La Libertad Centro","address":"Santa Tecla, La Libertad","rating":4.3,"verified":false,"featured":false,"source":"MITUR"}},{"type":"Feature","geometry":{"type":"Point","coordinates":[-89.1917,13.6983]},"properties":{"official_id":"cmrhpk0n8006p13v94svhnckn","name":"Palacio Nacional","slug":"palacio-nacional","category":"Centros Históricos","cat":"historico","department":"San Salvador","municipality":"San Salvador Centro","address":"Centro Histórico, San Salvador","rating":4.4,"verified":true,"featured":false,"source":"MITUR"}},{"type":"Feature","geometry":{"type":"Point","coordinates":[-89.1667,14.3164]},"properties":{"official_id":"cmrhpk0nc007q13v9uv9n9faf","name":"Palma / Iglesia de La Palma","slug":"palma-iglesia-de-la-palma","category":"Iglesias y Templos","cat":"historico","department":"Chalatenango","municipality":"Chalatenango Norte","address":"La Palma, Chalatenango","rating":4.3,"verified":false,"featured":false,"source":"MITUR"}},{"type":"Feature","geometry":{"type":"Point","coordinates":[-89.1833,13.6167]},"properties":{"official_id":"cmrhpk0n8006k13v9sv004cft","name":"Panchimalco","slug":"panchimalco","category":"Pueblos Turísticos","cat":"historico","department":"San Salvador","municipality":"San Salvador Sur","address":"Panchimalco, San Salvador","rating":4.4,"verified":true,"featured":false,"source":"MITUR"}},{"type":"Feature","geometry":{"type":"Point","coordinates":[-89.245,13.7061]},"properties":{"official_id":"cmrhpk0n9006u13v9ac9scg0f","name":"Parque Bicentenario","slug":"parque-bicentenario","category":"Parques Urbanos","cat":"parque","department":"San Salvador","municipality":"San Salvador Oeste","address":"San Salvador","rating":4.2,"verified":false,"featured":false,"source":"MITUR"}},{"type":"Feature","geometry":{"type":"Point","coordinates":[-89.2153,13.6969]},"properties":{"official_id":"cmrhpk0n9006t13v90t2r8nwk","name":"Parque Cuscatlán","slug":"parque-cuscatlan","category":"Parques Urbanos","cat":"parque","department":"San Salvador","municipality":"San Salvador Centro","address":"San Salvador","rating":4.3,"verified":false,"featured":false,"source":"MITUR"}},{"type":"Feature","geometry":{"type":"Point","coordinates":[-89.9667,13.8333]},"properties":{"official_id":"cmrhpk0n6006313v9hin2e4ac","name":"Parque Nacional El Imposible","slug":"parque-nacional-el-imposible","category":"Parques Nacionales","cat":"parque","department":"Ahuachapán","municipality":"Ahuachapán Sur","address":"Tacuba / San Francisco Menéndez, Ahuachapán","rating":4.8,"verified":true,"featured":true,"source":"MITUR"}},{"type":"Feature","geometry":{"type":"Point","coordinates":[-89.63,13.84]},"properties":{"official_id":"cmrhpk0n4005p13v9gr6zfc8h","name":"Parque Nacional Los Volcanes","slug":"parque-nacional-los-volcanes","category":"Parques Nacionales","cat":"parque","department":"Sonsonate","municipality":"Sonsonate Norte","address":"Cerro Verde, Sonsonate","rating":4.6,"verified":true,"featured":false,"source":"MITUR"}},{"type":"Feature","geometry":{"type":"Point","coordinates":[-89.35,14.4167]},"properties":{"official_id":"cmrhpk0n6006413v9wi0prave","name":"Parque Nacional Montecristo (Trifinio)","slug":"parque-nacional-montecristo-trifinio","category":"Parques Nacionales","cat":"parque","department":"Santa Ana","municipality":"Santa Ana Norte","address":"Metapán, Santa Ana","rating":4.7,"verified":true,"featured":false,"source":"MITUR"}},{"type":"Feature","geometry":{"type":"Point","coordinates":[-89.2167,13.5167]},"properties":{"official_id":"cmrhpk0n6006513v9i3izwpxo","name":"Parque Nacional Walter Thilo Deininger","slug":"parque-nacional-walter-thilo-deininger","category":"Parques Nacionales","cat":"parque","department":"La Libertad","municipality":"La Libertad Este","address":"San Luis Talpa / Costa del Sol, La Libertad","rating":4.2,"verified":false,"featured":false,"source":"MITUR"}},{"type":"Feature","geometry":{"type":"Point","coordinates":[-88.1667,13.9667]},"properties":{"official_id":"cmrhpk0n8006m13v9zkcf8l6l","name":"Perquín","slug":"perquin","category":"Pueblos Turísticos","cat":"historico","department":"Morazán","municipality":"Morazán Norte","address":"Perquín, Morazán","rating":4.5,"verified":true,"featured":false,"source":"MITUR"}},{"type":"Feature","geometry":{"type":"Point","coordinates":[-88.9014,13.3242]},"properties":{"official_id":"cmrhpk0n3005a13v91lj6fauy","name":"Playa Costa del Sol","slug":"playa-costa-del-sol","category":"Playas","cat":"playa","department":"La Paz","municipality":"La Paz Este","address":"San Luis La Herradura, La Paz","rating":4.2,"verified":false,"featured":false,"source":"MITUR"}},{"type":"Feature","geometry":{"type":"Point","coordinates":[-88.0964,13.1867]},"properties":{"official_id":"cmrhpk0n3005913v9klkc3ucp","name":"Playa El Cuco","slug":"playa-el-cuco","category":"Playas","cat":"playa","department":"San Miguel","municipality":"San Miguel Oeste","address":"Chirilagua, San Miguel","rating":4.3,"verified":false,"featured":false,"source":"MITUR"}},{"type":"Feature","geometry":{"type":"Point","coordinates":[-88.4,13.1667]},"properties":{"official_id":"cmrhpk0nc007w13v9zrxs6e6e","name":"Playa El Espino","slug":"playa-el-espino","category":"Playas","cat":"playa","department":"Usulután","municipality":"Usulután Este","address":"Jiquilisco, Usulután","rating":4.1,"verified":false,"featured":false,"source":"MITUR"}},{"type":"Feature","geometry":{"type":"Point","coordinates":[-89.3813,13.4949]},"properties":{"official_id":"cmrhlkop6000evkjbpexz21tp","name":"Playa El Tunco","slug":"playa-el-tunco","category":"Beach","cat":"playa","department":"La Libertad","municipality":"Tamanique","address":"Tamanique, La Libertad","rating":4.7,"verified":true,"featured":true,"source":"MITUR"}},{"type":"Feature","geometry":{"type":"Point","coordinates":[-89.4433,13.4917]},"properties":{"official_id":"cmrhpk0n3005713v9wv08lbgo","name":"Playa El Zonte","slug":"playa-el-zonte","category":"Playas","cat":"playa","department":"La Libertad","municipality":"La Libertad Costa","address":"Cantón El Zonte, Chiltiupán, La Libertad","rating":4.5,"verified":true,"featured":true,"source":"MITUR"}},{"type":"Feature","geometry":{"type":"Point","coordinates":[-88.3572,13.1789]},"properties":{"official_id":"cmrhpk0n3005813v9cok6cied","name":"Playa Las Flores","slug":"playa-las-flores","category":"Playas","cat":"playa","department":"Usulután","municipality":"Usulután Este","address":"Jucuarán, Usulután","rating":4.6,"verified":true,"featured":false,"source":"MITUR"}},{"type":"Feature","geometry":{"type":"Point","coordinates":[-89.85,13.5333]},"properties":{"official_id":"cmrhpk0nd007z13v924o196zu","name":"Playa Los Cóbanos","slug":"playa-los-cobanos","category":"Playas","cat":"playa","department":"Sonsonate","municipality":"Sonsonate Centro","address":"Acajutla, Sonsonate","rating":4.5,"verified":true,"featured":true,"source":"MITUR"}},{"type":"Feature","geometry":{"type":"Point","coordinates":[-89.55,13.47]},"properties":{"official_id":"cmrhpk0n3005b13v9osvu2y5t","name":"Playa Mizata","slug":"playa-mizata","category":"Playas","cat":"playa","department":"La Libertad","municipality":"La Libertad Costa","address":"Jicalapa, La Libertad","rating":4.3,"verified":false,"featured":false,"source":"MITUR"}},{"type":"Feature","geometry":{"type":"Point","coordinates":[-89.415,13.485]},"properties":{"official_id":"cmrhpk0n3005c13v9hfwam699","name":"Playa San Diego","slug":"playa-san-diego","category":"Playas","cat":"playa","department":"La Libertad","municipality":"La Libertad Costa","address":"Chiltiupán, La Libertad","rating":4.1,"verified":false,"featured":false,"source":"MITUR"}},{"type":"Feature","geometry":{"type":"Point","coordinates":[-89.1631,13.6236]},"properties":{"official_id":"cmrhpk0n8006s13v99gtf33ji","name":"Puerta del Diablo","slug":"puerta-del-diablo","category":"Miradores","cat":"montana","department":"San Salvador","municipality":"San Salvador Sur","address":"Panchimalco, San Salvador","rating":4.5,"verified":true,"featured":false,"source":"MITUR"}},{"type":"Feature","geometry":{"type":"Point","coordinates":[-89.8331,13.5892]},"properties":{"official_id":"cmrhpk0na007b13v94kzy745c","name":"Puerto de Acajutla","slug":"puerto-de-acajutla","category":"Puertos","cat":"turismo","department":"Sonsonate","municipality":"Sonsonate Centro","address":"Acajutla, Sonsonate","rating":3.8,"verified":false,"featured":false,"source":"MITUR"}},{"type":"Feature","geometry":{"type":"Point","coordinates":[-87.8253,13.3372]},"properties":{"official_id":"cmrhpk0na007c13v9kipbij4i","name":"Puerto de La Unión","slug":"puerto-de-la-union","category":"Puertos","cat":"turismo","department":"La Unión","municipality":"La Unión Sur","address":"La Unión","rating":3.7,"verified":false,"featured":false,"source":"MITUR"}},{"type":"Feature","geometry":{"type":"Point","coordinates":[-88.5497,13.2778]},"properties":{"official_id":"cmrhpk0nb007n13v9dp4v92ve","name":"Puerto El Triunfo","slug":"puerto-el-triunfo","category":"Puertos","cat":"turismo","department":"Usulután","municipality":"Usulután Este","address":"Puerto El Triunfo, Usulután","rating":4,"verified":false,"featured":false,"source":"MITUR"}},{"type":"Feature","geometry":{"type":"Point","coordinates":[-89.8,13.87]},"properties":{"official_id":"cmrhpk0n6006613v90he3z5xn","name":"Reserva de Biosfera Apaneca-Ilamatepec","slug":"reserva-de-biosfera-apaneca-ilamatepec","category":"Reservas Naturales","cat":"parque","department":"Ahuachapán","municipality":"Ahuachapán Centro","address":"Apaneca, Ahuachapán","rating":4.5,"verified":true,"featured":false,"source":"MITUR"}},{"type":"Feature","geometry":{"type":"Point","coordinates":[-88.9333,13.9]},"properties":{"official_id":"cmrhpk0n6006713v93amdrj54","name":"Reserva Ecológica Cinquera","slug":"reserva-ecologica-cinquera","category":"Reservas Naturales","cat":"parque","department":"Cabañas","municipality":"Cabañas Oeste","address":"Cinquera, Cabañas","rating":4.3,"verified":false,"featured":false,"source":"MITUR"}},{"type":"Feature","geometry":{"type":"Point","coordinates":[-88.1667,13.95]},"properties":{"official_id":"cmrhpk0n6006113v9gc3dpf88","name":"Río Sapo","slug":"rio-sapo","category":"Ríos y Cascadas","cat":"cascada","department":"Morazán","municipality":"Morazán Norte","address":"Cacaopera / Corinto, Morazán","rating":4.5,"verified":false,"featured":false,"source":"MITUR"}},{"type":"Feature","geometry":{"type":"Point","coordinates":[-89.72,13.72]},"properties":{"official_id":"cmrhpk0n6006213v9ziw7y0kv","name":"Río Sensunapán","slug":"rio-sensunapan","category":"Ríos y Cascadas","cat":"cascada","department":"Sonsonate","municipality":"Sonsonate Centro","address":"Sonsonate","rating":3.9,"verified":false,"featured":false,"source":"MITUR"}},{"type":"Feature","geometry":{"type":"Point","coordinates":[-89.38,13.82]},"properties":{"official_id":"cmrhpk0nb007i13v9kfe5bhsx","name":"Ruta Arqueológica","slug":"ruta-arqueologica","category":"Rutas Turísticas","cat":"turismo","department":"La Libertad","municipality":"La Libertad Norte","address":"La Libertad / Santa Ana","rating":4.5,"verified":true,"featured":false,"source":"MITUR"}},{"type":"Feature","geometry":{"type":"Point","coordinates":[-89.03,13.9]},"properties":{"official_id":"cmrhpk0nb007k13v9hh4nqx5m","name":"Ruta Colonial","slug":"ruta-colonial","category":"Rutas Turísticas","cat":"turismo","department":"Cuscatlán","municipality":"Cuscatlán Norte","address":"Suchitoto / Cojutepeque","rating":4.4,"verified":false,"featured":false,"source":"MITUR"}},{"type":"Feature","geometry":{"type":"Point","coordinates":[-89.76,13.845]},"properties":{"official_id":"cmrhpk0nb007h13v9jgiau6sr","name":"Ruta de Las Flores","slug":"ruta-de-las-flores","category":"Rutas Turísticas","cat":"turismo","department":"Sonsonate","municipality":"Sonsonate Este","address":"Sonsonate / Ahuachapán","rating":4.7,"verified":true,"featured":true,"source":"MITUR"}},{"type":"Feature","geometry":{"type":"Point","coordinates":[-88.15,13.95]},"properties":{"official_id":"cmrhpk0nb007j13v9m6ib4br6","name":"Ruta de Paz","slug":"ruta-de-paz","category":"Rutas Turísticas","cat":"turismo","department":"Morazán","municipality":"Morazán Norte","address":"Morazán","rating":4.4,"verified":true,"featured":false,"source":"MITUR"}},{"type":"Feature","geometry":{"type":"Point","coordinates":[-89.7328,13.8383]},"properties":{"official_id":"cmrhpk0n7006h13v99008z48p","name":"Salcoatitán","slug":"salcoatitan","category":"Pueblos Turísticos","cat":"historico","department":"Sonsonate","municipality":"Sonsonate Este","address":"Salcoatitán, Sonsonate","rating":4.3,"verified":false,"featured":false,"source":"MITUR"}},{"type":"Feature","geometry":{"type":"Point","coordinates":[-89.6822,13.9822]},"properties":{"official_id":"cmrhpk0n6006a13v9xt0p3xjt","name":"Sitio Arqueológico Casa Blanca","slug":"sitio-arqueologico-casa-blanca","category":"Zonas Arqueológicas Mayas","cat":"historico","department":"Santa Ana","municipality":"Santa Ana Oeste","address":"Chalchuapa, Santa Ana","rating":4.4,"verified":true,"featured":false,"source":"MITUR"}},{"type":"Feature","geometry":{"type":"Point","coordinates":[-89.1167,13.95]},"properties":{"official_id":"cmrhpk0n7006c13v9thjrm7w7","name":"Sitio Arqueológico Cihuatán","slug":"sitio-arqueologico-cihuatan","category":"Zonas Arqueológicas Mayas","cat":"historico","department":"San Salvador","municipality":"San Salvador Norte","address":"Aguilares, San Salvador","rating":4.3,"verified":false,"featured":false,"source":"MITUR"}},{"type":"Feature","geometry":{"type":"Point","coordinates":[-89.6742,13.9758]},"properties":{"official_id":"cmrhpk0n6006913v9shwonakc","name":"Sitio Arqueológico de Tazumal","slug":"sitio-arqueologico-de-tazumal","category":"Zonas Arqueológicas Mayas","cat":"historico","department":"Santa Ana","municipality":"Santa Ana Oeste","address":"Chalchuapa, Santa Ana","rating":4.6,"verified":true,"featured":true,"source":"MITUR"}},{"type":"Feature","geometry":{"type":"Point","coordinates":[-89.3922,13.8106]},"properties":{"official_id":"cmrhpk0n6006b13v9m4rfade8","name":"Sitio Arqueológico San Andrés","slug":"sitio-arqueologico-san-andres","category":"Zonas Arqueológicas Mayas","cat":"historico","department":"La Libertad","municipality":"La Libertad Norte","address":"Ciudad Arce, La Libertad","rating":4.4,"verified":true,"featured":false,"source":"MITUR"}},{"type":"Feature","geometry":{"type":"Point","coordinates":[-88.15,13.9903]},"properties":{"official_id":"cmrhpk0nb007l13v9v74761qi","name":"Sitio Histórico El Mozote","slug":"sitio-historico-el-mozote","category":"Sitios Arqueológicos","cat":"historico","department":"Morazán","municipality":"Morazán Norte","address":"Meanguera, Morazán","rating":4.6,"verified":true,"featured":false,"source":"MITUR"}},{"type":"Feature","geometry":{"type":"Point","coordinates":[-89.0275,13.9381]},"properties":{"official_id":"cmrhpk0n7006d13v9hnf8ttd7","name":"Suchitoto","slug":"suchitoto","category":"Pueblos Turísticos","cat":"historico","department":"Cuscatlán","municipality":"Cuscatlán Norte","address":"Suchitoto, Cuscatlán","rating":4.7,"verified":true,"featured":true,"source":"MITUR"}},{"type":"Feature","geometry":{"type":"Point","coordinates":[-89.5592,13.9944]},"properties":{"official_id":"cmrhpk0na007313v9gi58k9vb","name":"Teatro de Santa Ana","slug":"teatro-de-santa-ana","category":"Centros Culturales","cat":"historico","department":"Santa Ana","municipality":"Santa Ana Centro","address":"Santa Ana","rating":4.5,"verified":true,"featured":false,"source":"MITUR"}},{"type":"Feature","geometry":{"type":"Point","coordinates":[-89.1908,13.6983]},"properties":{"official_id":"cmrhpk0n8006q13v9m7pzlyky","name":"Teatro Nacional de San Salvador","slug":"teatro-nacional-de-san-salvador","category":"Centros Culturales","cat":"historico","department":"San Salvador","municipality":"San Salvador Centro","address":"Centro Histórico, San Salvador","rating":4.5,"verified":true,"featured":false,"source":"MITUR"}},{"type":"Feature","geometry":{"type":"Point","coordinates":[-89.83,13.92]},"properties":{"official_id":"cmrhpk0na007613v9hixfu7mn","name":"Termales de Santa Teresa","slug":"termales-de-santa-teresa","category":"Balnearios y Aguas Termales","cat":"parque","department":"Ahuachapán","municipality":"Ahuachapán Centro","address":"Ahuachapán","rating":4.2,"verified":false,"featured":false,"source":"MITUR"}},{"type":"Feature","geometry":{"type":"Point","coordinates":[-89.2144,13.7011]},"properties":{"official_id":"cmrhpk0na007d13v9pro4mnvz","name":"Terminal de Occidente","slug":"terminal-de-occidente","category":"Terminales de Transporte","cat":"turismo","department":"San Salvador","municipality":"San Salvador Centro","address":"San Salvador","rating":3.6,"verified":false,"featured":false,"source":"MITUR"}},{"type":"Feature","geometry":{"type":"Point","coordinates":[-89.1783,13.7014]},"properties":{"official_id":"cmrhpk0nb007e13v9ekz6nrp2","name":"Terminal de Oriente","slug":"terminal-de-oriente","category":"Terminales de Transporte","cat":"turismo","department":"San Salvador","municipality":"San Salvador Centro","address":"San Salvador","rating":3.6,"verified":false,"featured":false,"source":"MITUR"}},{"type":"Feature","geometry":{"type":"Point","coordinates":[-89.05,13.68]},"properties":{"official_id":"cmrhpk0na007913v9ccw5g4vl","name":"Turicentro Apulo","slug":"turicentro-apulo","category":"Balnearios y Aguas Termales","cat":"parque","department":"Cuscatlán","municipality":"Cuscatlán Sur","address":"San Pedro Perulapán / Ilopango, Cuscatlán","rating":4,"verified":false,"featured":false,"source":"MITUR"}},{"type":"Feature","geometry":{"type":"Point","coordinates":[-89.8317,13.5878]},"properties":{"official_id":"cmrhpk0na007813v9498k10s9","name":"Turicentro Atecozol","slug":"turicentro-atecozol","category":"Balnearios y Aguas Termales","cat":"parque","department":"Sonsonate","municipality":"Sonsonate Centro","address":"Acajutla, Sonsonate","rating":3.9,"verified":false,"featured":false,"source":"MITUR"}},{"type":"Feature","geometry":{"type":"Point","coordinates":[-89.4083,13.7469]},"properties":{"official_id":"cmrhpk0na007713v9yg9pvotu","name":"Turicentro Los Chorros","slug":"turicentro-los-chorros","category":"Balnearios y Aguas Termales","cat":"parque","department":"La Libertad","municipality":"La Libertad Norte","address":"Nuevo Cuscatlán, La Libertad","rating":4,"verified":false,"featured":false,"source":"MITUR"}},{"type":"Feature","geometry":{"type":"Point","coordinates":[-87.7508,13.2761]},"properties":{"official_id":"cmrhpk0n4005n13v91yy8bnsq","name":"Volcán de Conchagua","slug":"volcan-de-conchagua","category":"Volcanes","cat":"volcan","department":"La Unión","municipality":"La Unión Sur","address":"Conchagua, La Unión","rating":4.2,"verified":false,"featured":false,"source":"MITUR"}},{"type":"Feature","geometry":{"type":"Point","coordinates":[-89.6317,13.8144]},"properties":{"official_id":"cmrhpk0n4005j13v9fjixu0jf","name":"Volcán de Izalco","slug":"volcan-de-izalco","category":"Volcanes","cat":"volcan","department":"Sonsonate","municipality":"Sonsonate Norte","address":"Parque Nacional Los Volcanes, Sonsonate","rating":4.6,"verified":true,"featured":false,"source":"MITUR"}},{"type":"Feature","geometry":{"type":"Point","coordinates":[-88.2694,13.4342]},"properties":{"official_id":"cmrhpk0n4005m13v9s1sxsqp0","name":"Volcán de San Miguel (Chaparrastique)","slug":"volcan-de-san-miguel-chaparrastique","category":"Volcanes","cat":"volcan","department":"San Miguel","municipality":"San Miguel Centro","address":"San Miguel","rating":4.3,"verified":false,"featured":false,"source":"MITUR"}},{"type":"Feature","geometry":{"type":"Point","coordinates":[-89.2833,13.7333]},"properties":{"official_id":"cmrhpk0n4005l13v9jyw0tpz5","name":"Volcán de San Salvador (Boquerón)","slug":"volcan-de-san-salvador-boqueron","category":"Volcanes","cat":"volcan","department":"San Salvador","municipality":"San Salvador Oeste","address":"Parque Nacional El Boquerón, San Salvador","rating":4.5,"verified":true,"featured":false,"source":"MITUR"}},{"type":"Feature","geometry":{"type":"Point","coordinates":[-89.6297,13.8533]},"properties":{"official_id":"cmrhpk0n4005i13v9hiqsnmuk","name":"Volcán de Santa Ana (Ilamatepec)","slug":"volcan-de-santa-ana-ilamatepec","category":"Volcanes","cat":"volcan","department":"Santa Ana","municipality":"Santa Ana Oeste","address":"Parque Nacional Los Volcanes, Santa Ana","rating":4.8,"verified":true,"featured":true,"source":"MITUR"}},{"type":"Feature","geometry":{"type":"Point","coordinates":[-89.6308,13.8533]},"properties":{"official_id":"cmrhlkpie000gvkjbrewdops4","name":"Volcan Santa Ana","slug":"volcan-santa-ana","category":"Volcano","cat":"volcan","department":"Santa Ana","municipality":"Santa Ana Centro","address":"Parque Nacional Los Volcanes","rating":4.8,"verified":true,"featured":true,"source":"MITUR"}},{"type":"Feature","geometry":{"type":"Point","coordinates":[-88.4931,13.5006]},"properties":{"official_id":"cmrhpk0n4005o13v9oh782kpg","name":"Volcán y Laguna de Alegría (Tecapa)","slug":"volcan-y-laguna-de-alegria-tecapa","category":"Volcanes","cat":"volcan","department":"Usulután","municipality":"Usulután Norte","address":"Alegría, Usulután","rating":4.6,"verified":false,"featured":true,"source":"MITUR"}},{"type":"Feature","geometry":{"type":"Point","coordinates":[-89.2039,13.6772]},"properties":{"official_id":"cmrhpk0n9007013v9q8b8wcpu","name":"Zoológico Nacional de El Salvador","slug":"zoologico-nacional-de-el-salvador","category":"Parques Urbanos","cat":"parque","department":"San Salvador","municipality":"San Salvador Sur","address":"San Salvador","rating":3.9,"verified":false,"featured":false,"source":"MITUR"}}]}